{
"type": "FeatureCollection",
"features": [
{ "type": "Feature", "properties": { "name": "Bruce Public School", "address": "51 Larchmount Avenue", "city": "Toronto", "postal code": "M4M 2Y6", "municipality": "former Toronto" }, "geometry": { "type": "Point", "coordinates": [ -79.333339277185203, 43.661044401478897 ] } },
{ "type": "Feature", "properties": { "name": "Cosburn Middle School", "address": "520 Cosburn Avenue", "city": "East York", "postal code": "M4J 2P1", "municipality": "East York" }, "geometry": { "type": "Point", "coordinates": [ -79.330931658068906, 43.693760107044199 ] } },
{ "type": "Feature", "properties": { "name": "Wilkinson Junior Public School", "address": "53 Donlands Avenue", "city": "Toronto", "postal code": "M4J 3N7", "municipality": "former Toronto" }, "geometry": { "type": "Point", "coordinates": [ -79.337486460331206, 43.682050218143999 ] } },
{ "type": "Feature", "properties": { "name": "Sir Oliver Mowat Collegiate Institute", "address": "5400 Lawrence Avenue East", "city": "West Hill", "postal code": "M1C 2C6", "municipality": "Scarborough" }, "geometry": { "type": "Point", "coordinates": [ -79.142241482157999, 43.779310550242599 ] } },
{ "type": "Feature", "properties": { "name": "Sir Adam Beck Junior School", "address": "544 Horner Avenue", "city": "Etobicoke", "postal code": "M8W 2C2", "municipality": "Etobicoke" }, "geometry": { "type": "Point", "coordinates": [ -79.548165112429302, 43.601610440470402 ] } },
{ "type": "Feature", "properties": { "name": "Norway Junior Public School", "address": "390 Kingston Road", "city": "Toronto", "postal code": "M4L 1T9", "municipality": "former Toronto" }, "geometry": { "type": "Point", "coordinates": [ -79.306671909880095, 43.676287634067997 ] } },
{ "type": "Feature", "properties": { "name": "Malvern Collegiate Institute", "address": "55 Malvern Avenue", "city": "Toronto", "postal code": "M4E 3E4", "municipality": "former Toronto" }, "geometry": { "type": "Point", "coordinates": [ -79.292939532033103, 43.682922744889702 ] } },
{ "type": "Feature", "properties": { "name": "Earl Beatty Junior and Senior Public School", "address": "55 Woodington Avenue", "city": "Toronto", "postal code": "M4C 3J6", "municipality": "former Toronto" }, "geometry": { "type": "Point", "coordinates": [ -79.321568847723498, 43.686026614637498 ] } },
{ "type": "Feature", "properties": { "name": "Northview Heights Secondary School", "address": "550 Finch Avenue West", "city": "North York", "postal code": "M2R 1N6", "municipality": "North York" }, "geometry": { "type": "Point", "coordinates": [ -79.44632478, 43.774429207 ] } },
{ "type": "Feature", "properties": { "name": "Fairbank Memorial Community School", "address": "555 Harvie Avenue", "city": "York", "postal code": "M6E 4M2", "municipality": "York" }, "geometry": { "type": "Point", "coordinates": [ -79.455405701, 43.691703239 ] } },
{ "type": "Feature", "properties": { "name": "R H McGregor Elementary School", "address": "555 Mortimer Avenue", "city": "East York", "postal code": "M4J 2G9", "municipality": "East York" }, "geometry": { "type": "Point", "coordinates": [ -79.327135744, 43.689995257 ] } },
{ "type": "Feature", "properties": { "name": "Regent Heights Public School", "address": "555 Pharmacy Avenue", "city": "Scarborough", "postal code": "M1L 3H1", "municipality": "Scarborough" }, "geometry": { "type": "Point", "coordinates": [ -79.288907804750707, 43.707089903377302 ] } },
{ "type": "Feature", "properties": { "name": "Bala Avenue Community School", "address": "6 Bala Avenue", "city": "York", "postal code": "M6M 2E1", "municipality": "York" }, "geometry": { "type": "Point", "coordinates": [ -79.499015549227593, 43.689470804934601 ] } },
{ "type": "Feature", "properties": { "name": "Humber Summit Middle School", "address": "60 Pearldale Avenue", "city": "North York", "postal code": "M9L 2G9", "municipality": "North York" }, "geometry": { "type": "Point", "coordinates": [ -79.564525493655907, 43.750573343785703 ] } },
{ "type": "Feature", "properties": { "name": "Donwood Park Public School", "address": "61 Dorcot Avenue", "city": "Scarborough", "postal code": "M1P 3K5", "municipality": "Scarborough" }, "geometry": { "type": "Point", "coordinates": [ -79.262368321939803, 43.756986914715199 ] } },
{ "type": "Feature", "properties": { "name": "Taylor Creek Public School", "address": "644 Warden Avenue", "city": "Scarborough", "postal code": "M1L 3Z3", "municipality": "Scarborough" }, "geometry": { "type": "Point", "coordinates": [ -79.277290942622201, 43.700046355555799 ] } },
{ "type": "Feature", "properties": { "name": "Dewson Street Junior Public School", "address": "65 Concord Avenue", "city": "Toronto", "postal code": "M6H 2N9", "municipality": "former Toronto" }, "geometry": { "type": "Point", "coordinates": [ -79.424587934584807, 43.656557649616701 ] } },
{ "type": "Feature", "properties": { "name": "Topcliff Public School", "address": "65 Topcliff Avenue", "city": "North York", "postal code": "M3N 1L6", "municipality": "North York" }, "geometry": { "type": "Point", "coordinates": [ -79.510661444169699, 43.7556932633344 ] } },
{ "type": "Feature", "properties": { "name": "East York Collegiate Institute", "address": "650 Cosburn Avenue", "city": "East York", "postal code": "M4C 2V2", "municipality": "East York" }, "geometry": { "type": "Point", "coordinates": [ -79.327356549864206, 43.694517322717203 ] } },
{ "type": "Feature", "properties": { "name": "East York Alternative Secondary School", "address": "670 Cosburn Avenue", "city": "East York", "postal code": "M4C 2V2", "municipality": "East York" }, "geometry": { "type": "Point", "coordinates": [ -79.325298860553303, 43.694999942993903 ] } },
{ "type": "Feature", "properties": { "name": "George Syme Community School", "address": "69 Pritchard Avenue", "city": "York", "postal code": "M6N 1T6", "municipality": "York" }, "geometry": { "type": "Point", "coordinates": [ -79.491126771, 43.669251383 ] } },
{ "type": "Feature", "properties": { "name": "Drewry Secondary School", "address": "70 Drewry Avenue", "city": "North York", "postal code": "M2M 1C8", "municipality": "North York" }, "geometry": { "type": "Point", "coordinates": [ -79.4212169464043, 43.786990077031398 ] } },
{ "type": "Feature", "properties": { "name": "North Toronto Collegiate Institute", "address": "17 Broadway Ave", "city": "Toronto", "postal code": "M4P 1T7", "municipality": "former Toronto" }, "geometry": { "type": "Point", "coordinates": [ -79.397233562578194, 43.709702000447898 ] } },
{ "type": "Feature", "properties": { "name": "Forest Hill Collegiate Institute", "address": "730 Eglinton Avenue West", "city": "Toronto", "postal code": "M5N 1B9", "municipality": "former Toronto" }, "geometry": { "type": "Point", "coordinates": [ -79.421346034191501, 43.703066849156698 ] } },
{ "type": "Feature", "properties": { "name": "Palmerston Avenue Junior Public School", "address": "734 Palmerston Avenue", "city": "Toronto", "postal code": "M6G 2R4", "municipality": "former Toronto" }, "geometry": { "type": "Point", "coordinates": [ -79.415208196300597, 43.668153489193102 ] } },
{ "type": "Feature", "properties": { "name": "Parkdale Junior and Senior Public School", "address": "78 Seaforth Avenue", "city": "Toronto", "postal code": "M6K 3L2", "municipality": "former Toronto" }, "geometry": { "type": "Point", "coordinates": [ -79.436801827841407, 43.643195867096502 ] } },
{ "type": "Feature", "properties": { "name": "Earl Grey Senior Public School", "address": "100 Strathcona Avenue", "city": "Toronto", "postal code": "M4J 1G8", "municipality": "former Toronto" }, "geometry": { "type": "Point", "coordinates": [ -79.339932506579302, 43.676813879557798 ] } },
{ "type": "Feature", "properties": { "name": "William Burgess Elementary School", "address": "100 Torrens Avenue", "city": "East York", "postal code": "M4J 2P5", "municipality": "East York" }, "geometry": { "type": "Point", "coordinates": [ -79.348157727, 43.691927726 ] } },
{ "type": "Feature", "properties": { "name": "Secord Elementary School", "address": "101 Barrington Avenue", "city": "East York", "postal code": "M4C 4Y9", "municipality": "East York" }, "geometry": { "type": "Point", "coordinates": [ -79.301834455694902, 43.6923874888924 ] } },
{ "type": "Feature", "properties": { "name": "Glen Park Public School", "address": "101 Englemount Avenue", "city": "North York", "postal code": "M6B 4L5", "municipality": "North York" }, "geometry": { "type": "Point", "coordinates": [ -79.436385242084597, 43.713180838925503 ] } },
{ "type": "Feature", "properties": { "name": "Kew Beach Junior Public School", "address": "101 Kippendavie Avenue", "city": "Toronto", "postal code": "M4L 3R3", "municipality": "former Toronto" }, "geometry": { "type": "Point", "coordinates": [ -79.302730523993802, 43.6684728303578 ] } },
{ "type": "Feature", "properties": { "name": "Wexford Collegiate School for the Arts", "address": "1176 Pharmacy Avenue", "city": "Scarborough", "postal code": "M1R 2H7", "municipality": "Scarborough" }, "geometry": { "type": "Point", "coordinates": [ -79.306798598276004, 43.746168173023598 ] } },
{ "type": "Feature", "properties": { "name": "Birch Cliff Heights Public School", "address": "120 Highview Avenue", "city": "Scarborough", "postal code": "M1N 2J1", "municipality": "Scarborough" }, "geometry": { "type": "Point", "coordinates": [ -79.2598198285216, 43.701749990770402 ] } },
{ "type": "Feature", "properties": { "name": "Pierre Laporte Middle School", "address": "1270 Wilson Avenue", "city": "North York", "postal code": "M3M 1H5", "municipality": "North York" }, "geometry": { "type": "Point", "coordinates": [ -79.49212431799999, 43.725074528 ] } },
{ "type": "Feature", "properties": { "name": "William G Davis Junior Public School", "address": "128 East Avenue", "city": "West Hill", "postal code": "M1C 3L6", "municipality": "Scarborough" }, "geometry": { "type": "Point", "coordinates": [ -79.134477526116299, 43.785055040858403 ] } },
{ "type": "Feature", "properties": { "name": "Fern Avenue Junior and Senior Public School", "address": "128 Fern Avenue", "city": "Toronto", "postal code": "M6R 1K3", "municipality": "former Toronto" }, "geometry": { "type": "Point", "coordinates": [ -79.446116099977402, 43.6451888924543 ] } },
{ "type": "Feature", "properties": { "name": "Lynngate Junior Public School", "address": "129 Cass Avenue", "city": "Agincourt", "postal code": "M1T 2B5", "municipality": "Scarborough" }, "geometry": { "type": "Point", "coordinates": [ -79.30071632, 43.776469014 ] } },
{ "type": "Feature", "properties": { "name": "Maryvale Public School", "address": "1325 Pharmacy Avenue", "city": "Scarborough", "postal code": "M1R 2J1", "municipality": "Scarborough" }, "geometry": { "type": "Point", "coordinates": [ -79.307914789135594, 43.754679720193799 ] } },
{ "type": "Feature", "properties": { "name": "Balmy Beach Community School", "address": "14 Pine Avenue", "city": "Toronto", "postal code": "M4E 1L6", "municipality": "former Toronto" }, "geometry": { "type": "Point", "coordinates": [ -79.28982694299999, 43.676435913 ] } },
{ "type": "Feature", "properties": { "name": "Perth Avenue Junior Public School", "address": "14 Ruskin Avenue", "city": "Toronto", "postal code": "M6P 3P8", "municipality": "former Toronto" }, "geometry": { "type": "Point", "coordinates": [ -79.4524229465611, 43.662839944708601 ] } },
{ "type": "Feature", "properties": { "name": "Sheppard Public School", "address": "1430 Sheppard Avenue West", "city": "North York", "postal code": "M3M 2W9", "municipality": "North York" }, "geometry": { "type": "Point", "coordinates": [ -79.488263932034201, 43.745432948472697 ] } },
{ "type": "Feature", "properties": { "name": "Baycrest Public School", "address": "145 Baycrest Avenue", "city": "North York", "postal code": "M6A 1W4", "municipality": "North York" }, "geometry": { "type": "Point", "coordinates": [ -79.444254760548105, 43.7266143693586 ] } },
{ "type": "Feature", "properties": { "name": "Victoria Park Elementary School", "address": "145 Tiago Avenue", "city": "East York", "postal code": "M4B 2A6", "municipality": "East York" }, "geometry": { "type": "Point", "coordinates": [ -79.298153964932894, 43.712697777081601 ] } },
{ "type": "Feature", "properties": { "name": "Armour Heights Public School", "address": "148 Wilson Avenue", "city": "North York", "postal code": "M5M 3A5", "municipality": "North York" }, "geometry": { "type": "Point", "coordinates": [ -79.419525536573602, 43.740918636886498 ] } },
{ "type": "Feature", "properties": { "name": "Earl Haig Public School", "address": "15 Earl Haig Avenue", "city": "Toronto", "postal code": "M4C 1E2", "municipality": "former Toronto" }, "geometry": { "type": "Point", "coordinates": [ -79.321253687506996, 43.681340039711998 ] } },
{ "type": "Feature", "properties": { "name": "Newtonbrook Secondary School", "address": "155 Hilda Avenue", "city": "North York", "postal code": "M2M 1V6", "municipality": "North York" }, "geometry": { "type": "Point", "coordinates": [ -79.426245844669296, 43.793557742296898 ] } },
{ "type": "Feature", "properties": { "name": "Bendale Business and Technical Institute", "address": "1555 Midland Avenue", "city": "Scarborough", "postal code": "M1P 3C1", "municipality": "Scarborough" }, "geometry": { "type": "Point", "coordinates": [ -79.264746287710395, 43.755348364336399 ] } },
{ "type": "Feature", "properties": { "name": "Subway Academy I", "address": "16 Phin Avenue", "city": "Toronto", "postal code": "M4J 3T2", "municipality": "former Toronto" }, "geometry": { "type": "Point", "coordinates": [ -79.336639275581405, 43.679148827157597 ] } },
{ "type": "Feature", "properties": { "name": "Dennis Avenue Community School", "address": "17 Dennis Avenue", "city": "York", "postal code": "M6N 2T7", "municipality": "York" }, "geometry": { "type": "Point", "coordinates": [ -79.487289586744396, 43.684428120062599 ] } },
{ "type": "Feature", "properties": { "name": "Avondale Secondary Alternative School", "address": "24 Silverview Dr", "city": "North York", "postal code": "M2N 2B3", "municipality": "North York" }, "geometry": { "type": "Point", "coordinates": [ -79.411846414479797, 43.7863151133527 ] } },
{ "type": "Feature", "properties": { "name": "Richview Collegiate Institute", "address": "1738 Islington Avenue", "city": "Etobicoke", "postal code": "M9A 3N2", "municipality": "Etobicoke" }, "geometry": { "type": "Point", "coordinates": [ -79.538915655332602, 43.678877209416598 ] } },
{ "type": "Feature", "properties": { "name": "Cordella Junior Public School", "address": "175 Cordella Avenue", "city": "York", "postal code": "M6N 2K1", "municipality": "York" }, "geometry": { "type": "Point", "coordinates": [ -79.487585437, 43.67907009 ] } },
{ "type": "Feature", "properties": { "name": "Gracefield Public School", "address": "177 Gracefield Avenue", "city": "North York", "postal code": "M6L 1L7", "municipality": "North York" }, "geometry": { "type": "Point", "coordinates": [ -79.491341309, 43.709320532 ] } },
{ "type": "Feature", "properties": { "name": "Morse Street Junior Public School", "address": "180 Carlaw Avenue", "city": "Toronto", "postal code": "M4M 2R9", "municipality": "former Toronto" }, "geometry": { "type": "Point", "coordinates": [ -79.340169911411607, 43.660175503497598 ] } },
{ "type": "Feature", "properties": { "name": "Queen Alexandra Middle School", "address": "181 Broadview Avenue", "city": "Toronto", "postal code": "M4M 2G3", "municipality": "former Toronto" }, "geometry": { "type": "Point", "coordinates": [ -79.350521486776501, 43.661184683127502 ] } },
{ "type": "Feature", "properties": { "name": "Churchill Public School", "address": "188 Churchill Avenue", "city": "North York", "postal code": "M2N 1Z5", "municipality": "North York" }, "geometry": { "type": "Point", "coordinates": [ -79.427039427127198, 43.7707622010157 ] } },
{ "type": "Feature", "properties": { "name": "Gledhill Junior Public School", "address": "2 Gledhill Avenue", "city": "Toronto", "postal code": "M4C 5K6", "municipality": "East York" }, "geometry": { "type": "Point", "coordinates": [ -79.309514212, 43.687653478 ] } },
{ "type": "Feature", "properties": { "name": "Keelesdale Junior Public School", "address": "200 Bicknell Avenue", "city": "York", "postal code": "M6M 4G9", "municipality": "York" }, "geometry": { "type": "Point", "coordinates": [ -79.476949577560305, 43.6869656849194 ] } },
{ "type": "Feature", "properties": { "name": "Amesbury Middle School", "address": "201 Gracefield Avenue", "city": "North York", "postal code": "M6L 1L7", "municipality": "North York" }, "geometry": { "type": "Point", "coordinates": [ -79.494017660485994, 43.708706334031 ] } },
{ "type": "Feature", "properties": { "name": "Swansea Junior and Senior Public School", "address": "207 Windermere Avenue", "city": "Toronto", "postal code": "M6S 3J9", "municipality": "former Toronto" }, "geometry": { "type": "Point", "coordinates": [ -79.477088304281196, 43.643465963184603 ] } },
{ "type": "Feature", "properties": { "name": "Parkdale Collegiate Institute", "address": "209 Jameson Avenue", "city": "Toronto", "postal code": "M6K 2Y3", "municipality": "former Toronto" }, "geometry": { "type": "Point", "coordinates": [ -79.436071752808502, 43.639666091018199 ] } },
{ "type": "Feature", "properties": { "name": "Blake Street Junior Public School", "address": "21 Boultbee Avenue", "city": "Toronto", "postal code": "M4J 1A7", "municipality": "former Toronto" }, "geometry": { "type": "Point", "coordinates": [ -79.338479470150801, 43.671814954797199 ] } },
{ "type": "Feature", "properties": { "name": "East Alternative School of Toronto", "address": "21 Boultbee Avenue", "city": "Toronto", "postal code": "M4J 1A7", "municipality": "former Toronto" }, "geometry": { "type": "Point", "coordinates": [ -79.338479470150801, 43.671814954797199 ] } },
{ "type": "Feature", "properties": { "name": "Samuel Hearne Middle School", "address": "21 Newport Avenue", "city": "Scarborough", "postal code": "M1L 4N7", "municipality": "Scarborough" }, "geometry": { "type": "Point", "coordinates": [ -79.283678399038294, 43.695247027229399 ] } },
{ "type": "Feature", "properties": { "name": "Cameron Public School", "address": "211 Cameron Avenue", "city": "North York", "postal code": "M2N 1E8", "municipality": "North York" }, "geometry": { "type": "Point", "coordinates": [ -79.4212548060638, 43.754369298505303 ] } },
{ "type": "Feature", "properties": { "name": "Highview Public School", "address": "22 Highview Avenue", "city": "North York", "postal code": "M3M 1C4", "municipality": "North York" }, "geometry": { "type": "Point", "coordinates": [ -79.497233542593307, 43.7219596358294 ] } },
{ "type": "Feature", "properties": { "name": "Fairglen Junior Public School", "address": "2200 Pharmacy Avenue", "city": "Agincourt", "postal code": "M1W 1H8", "municipality": "Scarborough" }, "geometry": { "type": "Point", "coordinates": [ -79.322241419205497, 43.784944983625003 ] } },
{ "type": "Feature", "properties": { "name": "Eglinton Junior Public School", "address": "223 Eglinton Avenue East", "city": "Toronto", "postal code": "M4P 1L1", "municipality": "former Toronto" }, "geometry": { "type": "Point", "coordinates": [ -79.390850070373801, 43.7079123369857 ] } },
{ "type": "Feature", "properties": { "name": "Winston Churchill Collegiate Institute", "address": "2239 Lawrence Avenue East", "city": "Scarborough", "postal code": "M1P 2P7", "municipality": "Scarborough" }, "geometry": { "type": "Point", "coordinates": [ -79.278150141415196, 43.747906075106201 ] } },
{ "type": "Feature", "properties": { "name": "Garden Avenue Junior Public School", "address": "225 Garden Avenue", "city": "Toronto", "postal code": "M6R 1M9", "municipality": "former Toronto" }, "geometry": { "type": "Point", "coordinates": [ -79.449126951047305, 43.643208679737697 ] } },
{ "type": "Feature", "properties": { "name": "R J Lang Elementary and Middle School", "address": "227 Drewry Avenue", "city": "North York", "postal code": "M2M 1E3", "municipality": "North York" }, "geometry": { "type": "Point", "coordinates": [ -79.426513730223803, 43.783493982362302 ] } },
{ "type": "Feature", "properties": { "name": "Dovercourt Public School", "address": "228 Bartlett Avenue", "city": "Toronto", "postal code": "M6H 3G4", "municipality": "former Toronto" }, "geometry": { "type": "Point", "coordinates": [ -79.435782209780498, 43.666744192191601 ] } },
{ "type": "Feature", "properties": { "name": "Deer Park Junior and Senior Public School", "address": "23 Ferndale Avenue", "city": "Toronto", "postal code": "M4T 2B4", "municipality": "former Toronto" }, "geometry": { "type": "Point", "coordinates": [ -79.391559622877693, 43.689660535805999 ] } },
{ "type": "Feature", "properties": { "name": "Sir John A Macdonald Collegiate Institute", "address": "2300 Pharmacy Avenue", "city": "Agincourt", "postal code": "M1W 1H8", "municipality": "Scarborough" }, "geometry": { "type": "Point", "coordinates": [ -79.323673738851298, 43.787085969043098 ] } },
{ "type": "Feature", "properties": { "name": "Rawlinson Community School", "address": "231 Glenholme Avenue", "city": "York", "postal code": "M6E 3C7", "municipality": "York" }, "geometry": { "type": "Point", "coordinates": [ -79.440046671715905, 43.683985650917997 ] } },
{ "type": "Feature", "properties": { "name": "Greenwood Secondary School", "address": "800 Greenwood Ave", "city": "Toronto", "postal code": "M4J 4B7", "municipality": "former Toronto" }, "geometry": { "type": "Point", "coordinates": [ -79.3340927804568, 43.682847320548298 ] } },
{ "type": "Feature", "properties": { "name": "School of Life Experience", "address": "1 Hanson Street", "city": "Toronto", "postal code": "M4J 1G6", "municipality": "former Toronto" }, "geometry": { "type": "Point", "coordinates": [ -79.322771888, 43.67928073 ] } },
{ "type": "Feature", "properties": { "name": "John Wanless Junior Public School", "address": "245 Fairlawn Avenue", "city": "Toronto", "postal code": "M5M 1T2", "municipality": "former Toronto" }, "geometry": { "type": "Point", "coordinates": [ -79.411802899883199, 43.728787326574803 ] } },
{ "type": "Feature", "properties": { "name": "Hillmount Public School", "address": "245 McNicoll Avenue", "city": "North York", "postal code": "M2H 2C6", "municipality": "North York" }, "geometry": { "type": "Point", "coordinates": [ -79.350729748178694, 43.799416200398198 ] } },
{ "type": "Feature", "properties": { "name": "Withrow Avenue Junior Public School", "address": "25 Bain Avenue", "city": "Toronto", "postal code": "M4K 1E5", "municipality": "former Toronto" }, "geometry": { "type": "Point", "coordinates": [ -79.352132885723407, 43.670469052805501 ] } },
{ "type": "Feature", "properties": { "name": "Quest Alternative Senior School", "address": "25 Bain Avenue", "city": "Toronto", "postal code": "M4K 1E5", "municipality": "former Toronto" }, "geometry": { "type": "Point", "coordinates": [ -79.352132885723407, 43.670469052805501 ] } },
{ "type": "Feature", "properties": { "name": "Knob Hill Public School", "address": "25 Seminole Avenue", "city": "Scarborough", "postal code": "M1J 1M8", "municipality": "Scarborough" }, "geometry": { "type": "Point", "coordinates": [ -79.249788229242697, 43.745300886627497 ] } },
{ "type": "Feature", "properties": { "name": "Presteign Heights Elementary School", "address": "2570 St Clair Avenue East", "city": "East York", "postal code": "M4B 1M3", "municipality": "East York" }, "geometry": { "type": "Point", "coordinates": [ -79.317197188398893, 43.705551937672702 ] } },
{ "type": "Feature", "properties": { "name": "North Albion Collegiate Institute", "address": "2580 Kipling Avenue", "city": "Etobicoke", "postal code": "M9V 3B2", "municipality": "Etobicoke" }, "geometry": { "type": "Point", "coordinates": [ -79.585146080326695, 43.7471501634502 ] } },
{ "type": "Feature", "properties": { "name": "Agincourt Collegiate Institute", "address": "2621 Midland Avenue", "city": "Agincourt", "postal code": "M1S 1R6", "municipality": "Scarborough" }, "geometry": { "type": "Point", "coordinates": [ -79.278913166708605, 43.788882451165101 ] } },
{ "type": "Feature", "properties": { "name": "Driftwood Public School", "address": "265 Driftwood Avenue", "city": "North York", "postal code": "M3N 2N6", "municipality": "North York" }, "geometry": { "type": "Point", "coordinates": [ -79.515137692, 43.762555706 ] } },
{ "type": "Feature", "properties": { "name": "York Memorial Collegiate Institute", "address": "2690 Eglinton Avenue West", "city": "York", "postal code": "M6M 1T9", "municipality": "York" }, "geometry": { "type": "Point", "coordinates": [ -79.476243067462903, 43.690287307514197 ] } },
{ "type": "Feature", "properties": { "name": "David and Mary Thomson Collegiate Institute", "address": "2740 Lawrence Avenue East", "city": "Scarborough", "postal code": "M1P 2S7", "municipality": "Scarborough" }, "geometry": { "type": "Point", "coordinates": [ -79.259582328361105, 43.753615170204903 ] } },
{ "type": "Feature", "properties": { "name": "Finch Public School", "address": "277 Finch Avenue East", "city": "North York", "postal code": "M2N 4S3", "municipality": "North York" }, "geometry": { "type": "Point", "coordinates": [ -79.3949774513476, 43.783841685446397 ] } },
{ "type": "Feature", "properties": { "name": "Humberside Collegiate Institute", "address": "280 Quebec Avenue", "city": "Toronto", "postal code": "M6P 2V3", "municipality": "former Toronto" }, "geometry": { "type": "Point", "coordinates": [ -79.470646063864095, 43.659951292618999 ] } },
{ "type": "Feature", "properties": { "name": "Gordon A Brown Middle School", "address": "2800 St Clair Avenue East", "city": "East York", "postal code": "M4B 1N2", "municipality": "East York" }, "geometry": { "type": "Point", "coordinates": [ -79.305356165753807, 43.7078779055418 ] } },
{ "type": "Feature", "properties": { "name": "Hodgson Middle School", "address": "282 Davisville Avenue", "city": "Toronto", "postal code": "M4S 1H2", "municipality": "former Toronto" }, "geometry": { "type": "Point", "coordinates": [ -79.384796535830802, 43.701103591358603 ] } },
{ "type": "Feature", "properties": { "name": "Charles H Best Junior Middle School", "address": "285 Wilmington Avenue", "city": "North York", "postal code": "M3H 5K8", "municipality": "North York" }, "geometry": { "type": "Point", "coordinates": [ -79.458633500934596, 43.767453847917601 ] } },
{ "type": "Feature", "properties": { "name": "Pleasant Public School", "address": "288 Pleasant Avenue", "city": "North York", "postal code": "M2R 2R1", "municipality": "North York" }, "geometry": { "type": "Point", "coordinates": [ -79.434612956, 43.790064039 ] } },
{ "type": "Feature", "properties": { "name": "Blantyre Public School", "address": "290 Blantyre Avenue", "city": "Scarborough", "postal code": "M1N 2S4", "municipality": "Scarborough" }, "geometry": { "type": "Point", "coordinates": [ -79.283867857415004, 43.685108674826402 ] } },
{ "type": "Feature", "properties": { "name": "West Hill Public School", "address": "299 Morningside Avenue", "city": "West Hill", "postal code": "M1E 3G1", "municipality": "Scarborough" }, "geometry": { "type": "Point", "coordinates": [ -79.186887629060195, 43.772688218787202 ] } },
{ "type": "Feature", "properties": { "name": "Corvette Junior Public School", "address": "30 Corvette Avenue", "city": "Scarborough", "postal code": "M1K 3G2", "municipality": "Scarborough" }, "geometry": { "type": "Point", "coordinates": [ -79.262162923979105, 43.7264937100176 ] } },
{ "type": "Feature", "properties": { "name": "General Mercer Junior Public School", "address": "30 Turnberry Avenue", "city": "Toronto", "postal code": "M6N 1P8", "municipality": "former Toronto" }, "geometry": { "type": "Point", "coordinates": [ -79.464012462, 43.67905973 ] } },
{ "type": "Feature", "properties": { "name": "Silverthorn Community School", "address": "300 Kane Avenue", "city": "York", "postal code": "M6M 3P1", "municipality": "York" }, "geometry": { "type": "Point", "coordinates": [ -79.469418374157996, 43.687258005953097 ] } },
{ "type": "Feature", "properties": { "name": "Montrose Junior Public School", "address": "301 Montrose Avenue", "city": "Toronto", "postal code": "M6G 3G9", "municipality": "former Toronto" }, "geometry": { "type": "Point", "coordinates": [ -79.418846963016307, 43.658690168817103 ] } },
{ "type": "Feature", "properties": { "name": "Delta Alternative Senior School", "address": "301 Montrose Avenue", "city": "Toronto", "postal code": "M6G 3G9", "municipality": "former Toronto" }, "geometry": { "type": "Point", "coordinates": [ -79.418846963016307, 43.658690168817103 ] } },
{ "type": "Feature", "properties": { "name": "Subway Academy II", "address": "64 Baldwin Street", "city": "Toronto", "postal code": "M5T 1L4", "municipality": "former Toronto" }, "geometry": { "type": "Point", "coordinates": [ -79.395708339367701, 43.655773821205798 ] } },
{ "type": "Feature", "properties": { "name": "Wilmington Elementary School", "address": "330 Wilmington Avenue", "city": "North York", "postal code": "M3H 5L1", "municipality": "North York" }, "geometry": { "type": "Point", "coordinates": [ -79.460719579144595, 43.768510403832998 ] } },
{ "type": "Feature", "properties": { "name": "McKee Public School", "address": "35 Church Avenue", "city": "North York", "postal code": "M2N 6X6", "municipality": "North York" }, "geometry": { "type": "Point", "coordinates": [ -79.411059507689501, 43.774116463604798 ] } },
{ "type": "Feature", "properties": { "name": "Sunnylea Junior School", "address": "35 Glenroy Avenue", "city": "Etobicoke", "postal code": "M8Y 2M2", "municipality": "Etobicoke" }, "geometry": { "type": "Point", "coordinates": [ -79.506876521433597, 43.642452560338299 ] } },
{ "type": "Feature", "properties": { "name": "Lakeshore Collegiate Institute", "address": "350 Kipling Avenue", "city": "Etobicoke", "postal code": "M8V 3L1", "municipality": "Etobicoke" }, "geometry": { "type": "Point", "coordinates": [ -79.519163912683794, 43.6015719890569 ] } },
{ "type": "Feature", "properties": { "name": "West Hill Collegiate Institute", "address": "350 Morningside Avenue", "city": "West Hill", "postal code": "M1E 3G3", "municipality": "Scarborough" }, "geometry": { "type": "Point", "coordinates": [ -79.190590743167604, 43.775677035567597 ] } },
{ "type": "Feature", "properties": { "name": "Birchmount Park Collegiate Institute", "address": "3663 Danforth Avenue", "city": "Scarborough", "postal code": "M1N 2G2", "municipality": "Scarborough" }, "geometry": { "type": "Point", "coordinates": [ -79.2594577218957, 43.697761623401099 ] } },
{ "type": "Feature", "properties": { "name": "Ossington\/Old Orchard Junior Public School", "address": "380 Ossington Avenue", "city": "Toronto", "postal code": "M6J 3A5", "municipality": "former Toronto" }, "geometry": { "type": "Point", "coordinates": [ -79.422603006722696, 43.652716246758303 ] } },
{ "type": "Feature", "properties": { "name": "Allenby Junior Public School", "address": "391 St Clements Avenue", "city": "Toronto", "postal code": "M5N 1M2", "municipality": "former Toronto" }, "geometry": { "type": "Point", "coordinates": [ -79.412790982317304, 43.709444234065103 ] } },
{ "type": "Feature", "properties": { "name": "John Fisher Junior Public School", "address": "40 Erskine Avenue", "city": "Toronto", "postal code": "M4P 1Y2", "municipality": "former Toronto" }, "geometry": { "type": "Point", "coordinates": [ -79.39746937699999, 43.711928252 ] } },
{ "type": "Feature", "properties": { "name": "Parkside Elementary School", "address": "401 Cedarvale Avenue", "city": "East York", "postal code": "M4C 4K7", "municipality": "East York" }, "geometry": { "type": "Point", "coordinates": [ -79.31648307099999, 43.699854486 ] } },
{ "type": "Feature", "properties": { "name": "West Rouge Junior Public School", "address": "401 Friendship Avenue", "city": "West Hill", "postal code": "M1C 2X8", "municipality": "Scarborough" }, "geometry": { "type": "Point", "coordinates": [ -79.133715924, 43.795618421 ] } },
{ "type": "Feature", "properties": { "name": "Glenview Senior Public School", "address": "401 Rosewell Avenue", "city": "Toronto", "postal code": "M4R 2B5", "municipality": "former Toronto" }, "geometry": { "type": "Point", "coordinates": [ -79.409527947855807, 43.719985037580301 ] } },
{ "type": "Feature", "properties": { "name": "Pape Avenue Junior Public School", "address": "220 Langley Avenue", "city": "Toronto", "postal code": "M4K 1B9", "municipality": "former Toronto" }, "geometry": { "type": "Point", "coordinates": [ -79.341896835469896, 43.670360471359601 ] } },
{ "type": "Feature", "properties": { "name": "Fisherville Senior Public School", "address": "425 Patricia Avenue", "city": "North York", "postal code": "M2R 2N1", "municipality": "North York" }, "geometry": { "type": "Point", "coordinates": [ -79.4410095110794, 43.784574089723399 ] } },
{ "type": "Feature", "properties": { "name": "Islington Junior Middle School", "address": "44 Cordova Avenue", "city": "Etobicoke", "postal code": "M9A 2H5", "municipality": "Etobicoke" }, "geometry": { "type": "Point", "coordinates": [ -79.527949965318001, 43.647491395212597 ] } },
{ "type": "Feature", "properties": { "name": "Hillcrest Community School", "address": "44 Hilton Avenue", "city": "Toronto", "postal code": "M5R 3E6", "municipality": "former Toronto" }, "geometry": { "type": "Point", "coordinates": [ -79.415848024366198, 43.679051040274203 ] } },
{ "type": "Feature", "properties": { "name": "William J McCordic School", "address": "45 Balfour Avenue", "city": "Toronto", "postal code": "M4C 1T4", "municipality": "former Toronto" }, "geometry": { "type": "Point", "coordinates": [ -79.298986552786502, 43.690640429013499 ] } },
{ "type": "Feature", "properties": { "name": "Walter Perry Junior Public School", "address": "45 Falmouth Avenue", "city": "Scarborough", "postal code": "M1K 4M7", "municipality": "Scarborough" }, "geometry": { "type": "Point", "coordinates": [ -79.2512488820296, 43.733464726616802 ] } },
{ "type": "Feature", "properties": { "name": "Lanor Junior Middle School", "address": "450 Lanor Avenue", "city": "Etobicoke", "postal code": "M8W 2S1", "municipality": "Etobicoke" }, "geometry": { "type": "Point", "coordinates": [ -79.544772841792593, 43.609675288984299 ] } },
{ "type": "Feature", "properties": { "name": "John A Leslie Public School", "address": "459 Midland Avenue", "city": "Scarborough", "postal code": "M1N 4A7", "municipality": "Scarborough" }, "geometry": { "type": "Point", "coordinates": [ -79.248855278847401, 43.714130489731197 ] } },
{ "type": "Feature", "properties": { "name": "Clinton Street Junior Public School", "address": "460 Manning Avenue", "city": "Toronto", "postal code": "M6G 2V7", "municipality": "former Toronto" }, "geometry": { "type": "Point", "coordinates": [ -79.414057574, 43.657646075 ] } },
{ "type": "Feature", "properties": { "name": "Wedgewood Junior School", "address": "5 Swan Avenue", "city": "Etobicoke", "postal code": "M9B 1V1", "municipality": "Etobicoke" }, "geometry": { "type": "Point", "coordinates": [ -79.546256198863802, 43.645325523754799 ] } },
{ "type": "Feature", "properties": { "name": "John Polanyi Collegiate Institute", "address": "640 Lawrence Avenue West, 1st Floor", "city": "North York", "postal code": "M6A 1B1", "municipality": "North York" }, "geometry": { "type": "Point", "coordinates": [ -79.439858569516701, 43.7178175419469 ] } },
{ "type": "Feature", "properties": { "name": "Claude Watson School for the Arts", "address": "130 Doris Avenue", "city": "North York", "postal code": "M2N 0A8", "municipality": "North York" }, "geometry": { "type": "Point", "coordinates": [ -79.40921782, 43.765399596 ] } },
{ "type": "Feature", "properties": { "name": "Kimberley Junior Public School", "address": "50 Swanwick Avenue", "city": "Toronto", "postal code": "M4E 2Z5", "municipality": "former Toronto" }, "geometry": { "type": "Point", "coordinates": [ -79.299131090926394, 43.682628562259303 ] } },
{ "type": "Feature", "properties": { "name": "Beaches Alternative Junior School", "address": "50 Swanwick Avenue", "city": "Toronto", "postal code": "M4E 2Z5", "municipality": "former Toronto" }, "geometry": { "type": "Point", "coordinates": [ -79.299131090926394, 43.682628562259303 ] } },
{ "type": "Feature", "properties": { "name": "Frank Oke Secondary School", "address": "500 Alliance Avenue", "city": "York", "postal code": "M6N 2H8", "municipality": "York" }, "geometry": { "type": "Point", "coordinates": [ -79.488754226, 43.677512417 ] } },
{ "type": "Feature", "properties": { "name": "Lester B Pearson Elementary School", "address": "7 Snowcrest Avenue", "city": "North York", "postal code": "M2K 2K5", "municipality": "North York" }, "geometry": { "type": "Point", "coordinates": [ -79.387465567181593, 43.792328049800602 ] } },
{ "type": "Feature", "properties": { "name": "David Hornell Junior School", "address": "32 Victoria Street", "city": "Etobicoke", "postal code": "M8V 1M6", "municipality": "Etobicoke" }, "geometry": { "type": "Point", "coordinates": [ -79.488896926151497, 43.619341853444702 ] } },
{ "type": "Feature", "properties": { "name": "Ogden Junior Public School", "address": "33 Phoebe Street", "city": "Toronto", "postal code": "M5T 1A8", "municipality": "former Toronto" }, "geometry": { "type": "Point", "coordinates": [ -79.395130094177802, 43.650022197167601 ] } },
{ "type": "Feature", "properties": { "name": "Lord Lansdowne Junior Public School", "address": "33 Robert Street", "city": "Toronto", "postal code": "M5S 2K2", "municipality": "former Toronto" }, "geometry": { "type": "Point", "coordinates": [ -79.401913091315507, 43.658961625579501 ] } },
{ "type": "Feature", "properties": { "name": "City View Alternative Senior School", "address": "38 Shirley Street", "city": "Toronto", "postal code": "M6K 1S9", "municipality": "former Toronto" }, "geometry": { "type": "Point", "coordinates": [ -79.436725417843107, 43.648532813739301 ] } },
{ "type": "Feature", "properties": { "name": "Shirley Street Junior Public School", "address": "38 Shirley Street", "city": "Toronto", "postal code": "M6K 1S9", "municipality": "former Toronto" }, "geometry": { "type": "Point", "coordinates": [ -79.436725417843107, 43.648532813739301 ] } },
{ "type": "Feature", "properties": { "name": "School of Experiential Education", "address": "40 McArthur Street", "city": "Etobicoke", "postal code": "M9P 3M7", "municipality": "Etobicoke" }, "geometry": { "type": "Point", "coordinates": [ -79.546390974, 43.701635022 ] } },
{ "type": "Feature", "properties": { "name": "Horizon Alternative Senior School", "address": "570 Shaw Street", "city": "Toronto", "postal code": "M6G 3L6", "municipality": "former Toronto" }, "geometry": { "type": "Point", "coordinates": [ -79.421998615, 43.657978463 ] } },
{ "type": "Feature", "properties": { "name": "Kensington Community School", "address": "401 College Street", "city": "Toronto", "postal code": "M5T 1S9", "municipality": "former Toronto" }, "geometry": { "type": "Point", "coordinates": [ -79.405734767544899, 43.656406399836399 ] } },
{ "type": "Feature", "properties": { "name": "Bloorlea Middle School", "address": "4050 Bloor Street West", "city": "Etobicoke", "postal code": "M9B 1M5", "municipality": "Etobicoke" }, "geometry": { "type": "Point", "coordinates": [ -79.5553048364484, 43.637529459218101 ] } },
{ "type": "Feature", "properties": { "name": "Nelson Mandela Park Public School", "address": "440 Shuter Street", "city": "Toronto", "postal code": "M5A 1X6", "municipality": "former Toronto" }, "geometry": { "type": "Point", "coordinates": [ -79.360602911, 43.658352746 ] } },
{ "type": "Feature", "properties": { "name": "Brookview Middle School", "address": "4505 Jane Street", "city": "North York", "postal code": "M3N 2K7", "municipality": "North York" }, "geometry": { "type": "Point", "coordinates": [ -79.517249941331002, 43.767465833182499 ] } },
{ "type": "Feature", "properties": { "name": "Jarvis Collegiate Institute", "address": "495 Jarvis Street", "city": "Toronto", "postal code": "M4Y 2G8", "municipality": "former Toronto" }, "geometry": { "type": "Point", "coordinates": [ -79.378038076695205, 43.666260788605399 ] } },
{ "type": "Feature", "properties": { "name": "Hawthorne II Bilingual Alternative Junior School", "address": "50 Essex Street", "city": "Toronto", "postal code": "M6G 1T3", "municipality": "former Toronto" }, "geometry": { "type": "Point", "coordinates": [ -79.422271342148093, 43.668262333241003 ] } },
{ "type": "Feature", "properties": { "name": "Essex Junior and Senior Public School", "address": "50 Essex Street", "city": "Toronto", "postal code": "M6G 1T3", "municipality": "former Toronto" }, "geometry": { "type": "Point", "coordinates": [ -79.422271342148093, 43.668262333241003 ] } },
{ "type": "Feature", "properties": { "name": "Harwood Public School", "address": "50 Leigh Street", "city": "York", "postal code": "M6N 3X3", "municipality": "York" }, "geometry": { "type": "Point", "coordinates": [ -79.478412483, 43.676185915 ] } },
{ "type": "Feature", "properties": { "name": "Huron Street Junior Public School", "address": "541 Huron Street", "city": "Toronto", "postal code": "M5R 2R6", "municipality": "former Toronto" }, "geometry": { "type": "Point", "coordinates": [ -79.402414345544997, 43.671046765596699 ] } },
{ "type": "Feature", "properties": { "name": "Runnymede Collegiate Institute", "address": "569 Jane Street", "city": "York", "postal code": "M6S 4A3", "municipality": "York" }, "geometry": { "type": "Point", "coordinates": [ -79.489814656420606, 43.663540849331604 ] } },
{ "type": "Feature", "properties": { "name": "Beverley School", "address": "64 Baldwin Street", "city": "Toronto", "postal code": "M5T 1L4", "municipality": "former Toronto" }, "geometry": { "type": "Point", "coordinates": [ -79.395708339367701, 43.655773821205798 ] } },
{ "type": "Feature", "properties": { "name": "Rose Avenue Junior Public School", "address": "675 Ontario Street", "city": "Toronto", "postal code": "M4X 1N4", "municipality": "former Toronto" }, "geometry": { "type": "Point", "coordinates": [ -79.372508723698004, 43.670173661486203 ] } },
{ "type": "Feature", "properties": { "name": "Heydon Park Secondary School", "address": "70 D'Arcy Street", "city": "Toronto", "postal code": "M5T 1K1", "municipality": "former Toronto" }, "geometry": { "type": "Point", "coordinates": [ -79.394537989535905, 43.6549731898617 ] } },
{ "type": "Feature", "properties": { "name": "Sprucecourt Public School", "address": "70 Spruce Street", "city": "Toronto", "postal code": "M5A 2J1", "municipality": "former Toronto" }, "geometry": { "type": "Point", "coordinates": [ -79.363833148280506, 43.664494589354703 ] } },
{ "type": "Feature", "properties": { "name": "Eastdale Collegiate Institute", "address": "701 Gerrard Street East", "city": "Toronto", "postal code": "M4M 1Y4", "municipality": "former Toronto" }, "geometry": { "type": "Point", "coordinates": [ -79.3488221413281, 43.665935153085698 ] } },
{ "type": "Feature", "properties": { "name": "Second Street Junior Middle School", "address": "71 Second Street", "city": "Etobicoke", "postal code": "M8V 2X4", "municipality": "Etobicoke" }, "geometry": { "type": "Point", "coordinates": [ -79.499769530039103, 43.603676990801397 ] } },
{ "type": "Feature", "properties": { "name": "Rosedale Heights School of the Arts", "address": "711 Bloor Street East", "city": "Toronto", "postal code": "M4W 1J4", "municipality": "former Toronto" }, "geometry": { "type": "Point", "coordinates": [ -79.366019565649793, 43.6739482474146 ] } },
{ "type": "Feature", "properties": { "name": "Central Technical School", "address": "725 Bathurst Street", "city": "Toronto", "postal code": "M5S 2R5", "municipality": "former Toronto" }, "geometry": { "type": "Point", "coordinates": [ -79.4098118008732, 43.662712695135703 ] } },
{ "type": "Feature", "properties": { "name": "West End Alternative School", "address": "777 Bloor Street West", "city": "Toronto", "postal code": "M6G 1L6", "municipality": "former Toronto" }, "geometry": { "type": "Point", "coordinates": [ -79.419834019, 43.662429984 ] } },
{ "type": "Feature", "properties": { "name": "Church Street Junior Public School", "address": "83 Alexander Street", "city": "Toronto", "postal code": "M4Y 1B7", "municipality": "former Toronto" }, "geometry": { "type": "Point", "coordinates": [ -79.37917817, 43.663608426 ] } },
{ "type": "Feature", "properties": { "name": "Downtown Alternative School", "address": "85 Lower Jarvis Street", "city": "Toronto", "postal code": "M5E 1R8", "municipality": "former Toronto" }, "geometry": { "type": "Point", "coordinates": [ -79.370418880026605, 43.647744718944502 ] } },
{ "type": "Feature", "properties": { "name": "Ursula Franklin Academy", "address": "146 Glendonwynne Road", "city": "Toronto", "postal code": "M6P 3J7", "municipality": "former Toronto" }, "geometry": { "type": "Point", "coordinates": [ -79.474430648454998, 43.656522344031899 ] } },
{ "type": "Feature", "properties": { "name": "James S Bell Junior Middle Sports and Wellness Academy", "address": "90 Thirty First Street", "city": "Etobicoke", "postal code": "M8W 3E9", "municipality": "Etobicoke" }, "geometry": { "type": "Point", "coordinates": [ -79.5301917, 43.59435422 ] } },
{ "type": "Feature", "properties": { "name": "Brock Public School", "address": "93 Margueretta Street", "city": "Toronto", "postal code": "M6H 3S4", "municipality": "former Toronto" }, "geometry": { "type": "Point", "coordinates": [ -79.437847381450794, 43.653058273321598 ] } },
{ "type": "Feature", "properties": { "name": "Dundas Junior Public School", "address": "935 Dundas Street East", "city": "Toronto", "postal code": "M4M 1R4", "municipality": "former Toronto" }, "geometry": { "type": "Point", "coordinates": [ -79.348686332, 43.662077745 ] } },
{ "type": "Feature", "properties": { "name": "First Nations School of Toronto", "address": "16 Phin Avenue", "city": "Toronto", "postal code": "M4J 3T2", "municipality": "former Toronto" }, "geometry": { "type": "Point", "coordinates": [ -79.336639275581405, 43.679148827157597 ] } },
{ "type": "Feature", "properties": { "name": "Ledbury Park Elementary and Middle School", "address": "95 Falkirk Street", "city": "North York", "postal code": "M5M 4K1", "municipality": "North York" }, "geometry": { "type": "Point", "coordinates": [ -79.427325887279196, 43.7273990701119 ] } },
{ "type": "Feature", "properties": { "name": "Roselands Junior Public School", "address": "990 Jane Street", "city": "York", "postal code": "M6N 4E2", "municipality": "York" }, "geometry": { "type": "Point", "coordinates": [ -79.499064275395298, 43.681235373914298 ] } },
{ "type": "Feature", "properties": { "name": "Winona Drive Senior Public School", "address": "101 Winona Drive", "city": "Toronto", "postal code": "M6G 3S8", "municipality": "former Toronto" }, "geometry": { "type": "Point", "coordinates": [ -79.430862033255593, 43.677010653020098 ] } },
{ "type": "Feature", "properties": { "name": "Steelesview Public School", "address": "105 Bestview Drive", "city": "North York", "postal code": "M2M 2Y1", "municipality": "North York" }, "geometry": { "type": "Point", "coordinates": [ -79.385636102423504, 43.802674698679297 ] } },
{ "type": "Feature", "properties": { "name": "Sir William Osler High School", "address": "1050 Huntingwood Drive", "city": "Agincourt", "postal code": "M1S 3H5", "municipality": "Scarborough" }, "geometry": { "type": "Point", "coordinates": [ -79.287404547481202, 43.797575100211603 ] } },
{ "type": "Feature", "properties": { "name": "Glen Ravine Junior Public School", "address": "11 Gadsby Drive", "city": "Scarborough", "postal code": "M1K 4V4", "municipality": "Scarborough" }, "geometry": { "type": "Point", "coordinates": [ -79.254062143952098, 43.738233226183397 ] } },
{ "type": "Feature", "properties": { "name": "Roywood Public School", "address": "11 Roywood Drive", "city": "North York", "postal code": "M3A 2C7", "municipality": "North York" }, "geometry": { "type": "Point", "coordinates": [ -79.3217764058558, 43.764732676572699 ] } },
{ "type": "Feature", "properties": { "name": "Tredway Woodsworth Public School", "address": "112 Sedgemount Drive", "city": "Scarborough", "postal code": "M1H 1X9", "municipality": "Scarborough" }, "geometry": { "type": "Point", "coordinates": [ -79.235112459871502, 43.764933655264898 ] } },
{ "type": "Feature", "properties": { "name": "McMurrich Junior Public School", "address": "115 Winona Drive", "city": "Toronto", "postal code": "M6G 3S8", "municipality": "former Toronto" }, "geometry": { "type": "Point", "coordinates": [ -79.431065208092207, 43.678084955257397 ] } },
{ "type": "Feature", "properties": { "name": "Elkhorn Public School", "address": "10 Elkhorn Drive", "city": "North York", "postal code": "M2K 1J3", "municipality": "North York" }, "geometry": { "type": "Point", "coordinates": [ -79.380065676489096, 43.771223999288999 ] } },
{ "type": "Feature", "properties": { "name": "Elmbank Junior Middle Academy", "address": "10 Pittsboro Drive", "city": "Etobicoke", "postal code": "M9V 3R4", "municipality": "Etobicoke" }, "geometry": { "type": "Point", "coordinates": [ -79.59004707299999, 43.736501904 ] } },
{ "type": "Feature", "properties": { "name": "Chalkfarm Public School", "address": "100 Chalkfarm Drive", "city": "North York", "postal code": "M3L 1L4", "municipality": "North York" }, "geometry": { "type": "Point", "coordinates": [ -79.514396026454804, 43.727115017445001 ] } },
{ "type": "Feature", "properties": { "name": "Crestview Public School", "address": "101 Seneca Hill Drive", "city": "North York", "postal code": "M2J 2W3", "municipality": "North York" }, "geometry": { "type": "Point", "coordinates": [ -79.359846604, 43.78843218 ] } },
{ "type": "Feature", "properties": { "name": "Whitney Junior Public School", "address": "119 Rosedale Heights Drive", "city": "Toronto", "postal code": "M4T 1C7", "municipality": "former Toronto" }, "geometry": { "type": "Point", "coordinates": [ -79.378400503479796, 43.6871689272052 ] } },
{ "type": "Feature", "properties": { "name": "Henry Kelsey Senior Public School", "address": "1200 Huntingwood Drive", "city": "Agincourt", "postal code": "M1S 1K7", "municipality": "Scarborough" }, "geometry": { "type": "Point", "coordinates": [ -79.277031418064794, 43.7983542008866 ] } },
{ "type": "Feature", "properties": { "name": "Lawrence Park Collegiate Institute", "address": "125 Chatsworth Drive", "city": "Toronto", "postal code": "M4R 1S1", "municipality": "former Toronto" }, "geometry": { "type": "Point", "coordinates": [ -79.410442320955696, 43.722231298536499 ] } },
{ "type": "Feature", "properties": { "name": "Yorkview Public School", "address": "130 Yorkview Drive", "city": "North York", "postal code": "M2R 1K1", "municipality": "North York" }, "geometry": { "type": "Point", "coordinates": [ -79.435569689189194, 43.772582211200998 ] } },
{ "type": "Feature", "properties": { "name": "West Humber Junior Middle School", "address": "15 Delsing Drive", "city": "Etobicoke", "postal code": "M9W 4S7", "municipality": "Etobicoke" }, "geometry": { "type": "Point", "coordinates": [ -79.580077852909895, 43.7238348122277 ] } },
{ "type": "Feature", "properties": { "name": "Eatonville Junior School", "address": "15 Rossburn Drive", "city": "Etobicoke", "postal code": "M9C 2P7", "municipality": "Etobicoke" }, "geometry": { "type": "Point", "coordinates": [ -79.567005707846505, 43.638316525188401 ] } },
{ "type": "Feature", "properties": { "name": "O'Connor Public School", "address": "1665 O'Connor Drive", "city": "North York", "postal code": "M4A 1W5", "municipality": "North York" }, "geometry": { "type": "Point", "coordinates": [ -79.304155352286998, 43.716515919874702 ] } },
{ "type": "Feature", "properties": { "name": "Gulfstream Public School", "address": "20 Gulfstream Road", "city": "North York", "postal code": "M9M 1S3", "municipality": "North York" }, "geometry": { "type": "Point", "coordinates": [ -79.542013089531807, 43.739086569490503 ] } },
{ "type": "Feature", "properties": { "name": "Rene Gordon Health and Wellness Academy", "address": "20 Karen Road", "city": "North York", "postal code": "M3A 3L6", "municipality": "North York" }, "geometry": { "type": "Point", "coordinates": [ -79.340381507, 43.761643695 ] } },
{ "type": "Feature", "properties": { "name": "Fleming Public School", "address": "20 Littles Road", "city": "Scarborough", "postal code": "M1B 5B5", "municipality": "Scarborough" }, "geometry": { "type": "Point", "coordinates": [ -79.203717348476204, 43.815369835350502 ] } },
{ "type": "Feature", "properties": { "name": "William Lyon Mackenzie Collegiate Institute", "address": "20 Tillplain Road", "city": "North York", "postal code": "M3H 5R2", "municipality": "North York" }, "geometry": { "type": "Point", "coordinates": [ -79.461897423926303, 43.753479555138298 ] } },
{ "type": "Feature", "properties": { "name": "Highland Middle School", "address": "201 Cliffwood Road", "city": "North York", "postal code": "M2H 3B5", "municipality": "North York" }, "geometry": { "type": "Point", "coordinates": [ -79.355448087, 43.806860377 ] } },
{ "type": "Feature", "properties": { "name": "Rippleton Public School", "address": "21 Rippleton Road", "city": "North York", "postal code": "M3B 1H4", "municipality": "North York" }, "geometry": { "type": "Point", "coordinates": [ -79.360123699348605, 43.740913435207801 ] } },
{ "type": "Feature", "properties": { "name": "Elia Middle School", "address": "215 Sentinel Road", "city": "North York", "postal code": "M3J 1T7", "municipality": "North York" }, "geometry": { "type": "Point", "coordinates": [ -79.498461590229596, 43.753807915603701 ] } },
{ "type": "Feature", "properties": { "name": "Millwood Junior School", "address": "222 Mill Road", "city": "Etobicoke", "postal code": "M9C 1Y2", "municipality": "Etobicoke" }, "geometry": { "type": "Point", "coordinates": [ -79.577119516, 43.633362281 ] } },
{ "type": "Feature", "properties": { "name": "Woburn Collegiate Institute", "address": "2222 Ellesmere Road", "city": "Scarborough", "postal code": "M1G 3M3", "municipality": "Scarborough" }, "geometry": { "type": "Point", "coordinates": [ -79.228461783583796, 43.778173724438702 ] } },
{ "type": "Feature", "properties": { "name": "Guildwood Junior Public School", "address": "225 Livingston Road", "city": "Scarborough", "postal code": "M1E 1L8", "municipality": "Scarborough" }, "geometry": { "type": "Point", "coordinates": [ -79.199989860043303, 43.750829682944399 ] } },
{ "type": "Feature", "properties": { "name": "Willowdale Middle School", "address": "225 Senlac Road", "city": "North York", "postal code": "M2R 1P6", "municipality": "North York" }, "geometry": { "type": "Point", "coordinates": [ -79.426092234168607, 43.769783822266497 ] } },
{ "type": "Feature", "properties": { "name": "J R Wilcox Community School", "address": "231 Ava Road", "city": "York", "postal code": "M6C 1X3", "municipality": "York" }, "geometry": { "type": "Point", "coordinates": [ -79.436308519122207, 43.694955384284498 ] } },
{ "type": "Feature", "properties": { "name": "St Margaret's Public School", "address": "235 Galloway Road", "city": "West Hill", "postal code": "M1E 1X5", "municipality": "Scarborough" }, "geometry": { "type": "Point", "coordinates": [ -79.195943418, 43.768267184 ] } },
{ "type": "Feature", "properties": { "name": "Alexander Muir\/Gladstone Ave Junior and Senior Public School", "address": "108 Gladstone Avenue", "city": "Toronto", "postal code": "M6J 3L2", "municipality": "former Toronto" }, "geometry": { "type": "Point", "coordinates": [ -79.428850504346698, 43.6460298269159 ] } },
{ "type": "Feature", "properties": { "name": "Williamson Road Junior Public School", "address": "24 Williamson Road", "city": "Toronto", "postal code": "M4E 1K5", "municipality": "former Toronto" }, "geometry": { "type": "Point", "coordinates": [ -79.297473009071396, 43.674519650562303 ] } },
{ "type": "Feature", "properties": { "name": "Stephen Leacock Collegiate Institute", "address": "2450 Birchmount Road", "city": "Agincourt", "postal code": "M1T 2M5", "municipality": "Scarborough" }, "geometry": { "type": "Point", "coordinates": [ -79.300856892, 43.785203437 ] } },
{ "type": "Feature", "properties": { "name": "John Buchan Senior Public School", "address": "2450 Birchmount Road", "city": "Agincourt", "postal code": "M1T 2M5", "municipality": "Scarborough" }, "geometry": { "type": "Point", "coordinates": [ -79.300856892, 43.785203437 ] } },
{ "type": "Feature", "properties": { "name": "King George Junior Public School", "address": "25 Rexford Road", "city": "York", "postal code": "M6S 2M2", "municipality": "York" }, "geometry": { "type": "Point", "coordinates": [ -79.486890017959297, 43.663171271138097 ] } },
{ "type": "Feature", "properties": { "name": "Joseph Brant Public School", "address": "270 Manse Road", "city": "West Hill", "postal code": "M1E 3V4", "municipality": "Scarborough" }, "geometry": { "type": "Point", "coordinates": [ -79.175497546, 43.767044034 ] } },
{ "type": "Feature", "properties": { "name": "Centennial Road Junior Public School", "address": "271 Centennial Road", "city": "West Hill", "postal code": "M1C 2A2", "municipality": "Scarborough" }, "geometry": { "type": "Point", "coordinates": [ -79.150026984157293, 43.786970888196798 ] } },
{ "type": "Feature", "properties": { "name": "Dorset Park Public School", "address": "28 Blaisdale Road", "city": "Scarborough", "postal code": "M1P 1V6", "municipality": "Scarborough" }, "geometry": { "type": "Point", "coordinates": [ -79.279865178234701, 43.7502235533752 ] } },
{ "type": "Feature", "properties": { "name": "Silverthorn Collegiate Institute", "address": "291 Mill Road", "city": "Etobicoke", "postal code": "M9C 1Y5", "municipality": "Etobicoke" }, "geometry": { "type": "Point", "coordinates": [ -79.580391843108401, 43.637844484536203 ] } },
{ "type": "Feature", "properties": { "name": "Rouge Valley Public School", "address": "30 Durnford Road", "city": "Scarborough", "postal code": "M1B 4X3", "municipality": "Scarborough" }, "geometry": { "type": "Point", "coordinates": [ -79.151287388, 43.799386255 ] } },
{ "type": "Feature", "properties": { "name": "General Crerar Public School", "address": "30 McGregor Road", "city": "Scarborough", "postal code": "M1P 1C8", "municipality": "Scarborough" }, "geometry": { "type": "Point", "coordinates": [ -79.279580872858304, 43.745695367947803 ] } },
{ "type": "Feature", "properties": { "name": "F H Miller Junior Public School", "address": "300 Caledonia Road", "city": "York", "postal code": "M6E 4T5", "municipality": "York" }, "geometry": { "type": "Point", "coordinates": [ -79.458901360408802, 43.684014356378299 ] } },
{ "type": "Feature", "properties": { "name": "Georges Vanier Secondary School", "address": "3000 Don Mills Road", "city": "North York", "postal code": "M2J 3B6", "municipality": "North York" }, "geometry": { "type": "Point", "coordinates": [ -79.350496194, 43.784292291 ] } },
{ "type": "Feature", "properties": { "name": "Smithfield Middle School", "address": "175 Mount Olive Drive", "city": "Etobicoke", "postal code": "M9V 2E3", "municipality": "Etobicoke" }, "geometry": { "type": "Point", "coordinates": [ -79.595751874, 43.750011127 ] } },
{ "type": "Feature", "properties": { "name": "Pelmo Park Public School", "address": "180 Gary Drive", "city": "North York", "postal code": "M9N 2M1", "municipality": "North York" }, "geometry": { "type": "Point", "coordinates": [ -79.518119445455397, 43.7120653189602 ] } },
{ "type": "Feature", "properties": { "name": "Rosethorn Junior School", "address": "2 Remington Drive", "city": "Etobicoke", "postal code": "M9A 2J1", "municipality": "Etobicoke" }, "geometry": { "type": "Point", "coordinates": [ -79.539484258890795, 43.659929141417599 ] } },
{ "type": "Feature", "properties": { "name": "Dunlace Public School", "address": "20 Dunlace Drive", "city": "North York", "postal code": "M2L 2S1", "municipality": "North York" }, "geometry": { "type": "Point", "coordinates": [ -79.370357324, 43.762459427 ] } },
{ "type": "Feature", "properties": { "name": "George S Henry Academy", "address": "200 Graydon Hall Drive", "city": "North York", "postal code": "M3A 3A6", "municipality": "North York" }, "geometry": { "type": "Point", "coordinates": [ -79.33992003, 43.764359961 ] } },
{ "type": "Feature", "properties": { "name": "Bessborough Drive Elementary and Middle School", "address": "211 Bessborough Drive", "city": "East York", "postal code": "M4G 3K2", "municipality": "East York" }, "geometry": { "type": "Point", "coordinates": [ -79.370138441734994, 43.707223327695303 ] } },
{ "type": "Feature", "properties": { "name": "Rosedale Junior Public School", "address": "22 South Drive", "city": "Toronto", "postal code": "M4W 1R1", "municipality": "former Toronto" }, "geometry": { "type": "Point", "coordinates": [ -79.381689257652496, 43.677664318054703 ] } },
{ "type": "Feature", "properties": { "name": "Wellesworth Junior School", "address": "225 Wellesworth Drive", "city": "Etobicoke", "postal code": "M9C 4S5", "municipality": "Etobicoke" }, "geometry": { "type": "Point", "coordinates": [ -79.576722042587605, 43.656645918075597 ] } },
{ "type": "Feature", "properties": { "name": "Daystrom Public School", "address": "25 Daystrom Drive", "city": "North York", "postal code": "M9M 2A8", "municipality": "North York" }, "geometry": { "type": "Point", "coordinates": [ -79.546966590435105, 43.747955518932898 ] } },
{ "type": "Feature", "properties": { "name": "Westway Junior School", "address": "25 Poynter Drive", "city": "Etobicoke", "postal code": "M9R 1K8", "municipality": "Etobicoke" }, "geometry": { "type": "Point", "coordinates": [ -79.548996597714194, 43.690830699478099 ] } },
{ "type": "Feature", "properties": { "name": "Beverley Heights Middle School", "address": "26 Troutbrooke Drive", "city": "North York", "postal code": "M3M 1S5", "municipality": "North York" }, "geometry": { "type": "Point", "coordinates": [ -79.504775005461497, 43.733033191429598 ] } },
{ "type": "Feature", "properties": { "name": "Cliffside Public School", "address": "27 East Haven Drive", "city": "Scarborough", "postal code": "M1N 1M1", "municipality": "Scarborough" }, "geometry": { "type": "Point", "coordinates": [ -79.250536044, 43.704882108 ] } },
{ "type": "Feature", "properties": { "name": "George Anderson Public School", "address": "30 George Anderson Drive", "city": "North York", "postal code": "M6M 2Y8", "municipality": "North York" }, "geometry": { "type": "Point", "coordinates": [ -79.478948061, 43.705453527 ] } },
{ "type": "Feature", "properties": { "name": "Shoreham Public Sports and Wellness Academy", "address": "31 Shoreham Drive", "city": "North York", "postal code": "M3N 2S6", "municipality": "North York" }, "geometry": { "type": "Point", "coordinates": [ -79.51738796399999, 43.768799546 ] } },
{ "type": "Feature", "properties": { "name": "Calico Public School", "address": "35 Calico Drive", "city": "North York", "postal code": "M3L 1V5", "municipality": "North York" }, "geometry": { "type": "Point", "coordinates": [ -79.50359204199999, 43.737906172 ] } },
{ "type": "Feature", "properties": { "name": "Hilltop Middle School", "address": "35 Trehorne Drive", "city": "Etobicoke", "postal code": "M9P 1N8", "municipality": "Etobicoke" }, "geometry": { "type": "Point", "coordinates": [ -79.533070297655499, 43.6894713157495 ] } },
{ "type": "Feature", "properties": { "name": "Claireville Junior School", "address": "350 Silverstone Drive", "city": "Etobicoke", "postal code": "M9V 3J4", "municipality": "Etobicoke" }, "geometry": { "type": "Point", "coordinates": [ -79.598231060514394, 43.747850791981399 ] } },
{ "type": "Feature", "properties": { "name": "Maurice Cody Junior Public School", "address": "364 Belsize Drive", "city": "Toronto", "postal code": "M4S 1N2", "municipality": "former Toronto" }, "geometry": { "type": "Point", "coordinates": [ -79.377451433636097, 43.704828253222203 ] } },
{ "type": "Feature", "properties": { "name": "Woburn Junior Public School", "address": "40 Dormington Drive", "city": "Scarborough", "postal code": "M1G 3N2", "municipality": "Scarborough" }, "geometry": { "type": "Point", "coordinates": [ -79.22700167, 43.77950279 ] } },
{ "type": "Feature", "properties": { "name": "Broadacres Junior School", "address": "45 Crendon Drive", "city": "Etobicoke", "postal code": "M9C 3G6", "municipality": "Etobicoke" }, "geometry": { "type": "Point", "coordinates": [ -79.572024030983599, 43.648075295339503 ] } },
{ "type": "Feature", "properties": { "name": "The Elms Junior Middle School", "address": "45 Golfdown Drive", "city": "Etobicoke", "postal code": "M9W 2H8", "municipality": "Etobicoke" }, "geometry": { "type": "Point", "coordinates": [ -79.552113787, 43.722227299 ] } },
{ "type": "Feature", "properties": { "name": "Willow Park Junior Public School", "address": "45 Windover Drive", "city": "Scarborough", "postal code": "M1G 1P1", "municipality": "Scarborough" }, "geometry": { "type": "Point", "coordinates": [ -79.209581726814605, 43.7612067055259 ] } },
{ "type": "Feature", "properties": { "name": "Cresthaven Public School", "address": "46 Cresthaven Drive", "city": "North York", "postal code": "M2H 1M1", "municipality": "North York" }, "geometry": { "type": "Point", "coordinates": [ -79.36435747, 43.797564735 ] } },
{ "type": "Feature", "properties": { "name": "A Y Jackson Secondary School", "address": "50 Francine Drive", "city": "North York", "postal code": "M2H 2G6", "municipality": "North York" }, "geometry": { "type": "Point", "coordinates": [ -79.366558537445897, 43.805269909179898 ] } },
{ "type": "Feature", "properties": { "name": "Elmlea Junior School", "address": "50 Hadrian Drive", "city": "Etobicoke", "postal code": "M9W 1V4", "municipality": "Etobicoke" }, "geometry": { "type": "Point", "coordinates": [ -79.550579441387498, 43.715635266855003 ] } },
{ "type": "Feature", "properties": { "name": "Lynnwood Heights Junior Public School", "address": "50 Southlawn Drive", "city": "Scarborough", "postal code": "M1S 1J1", "municipality": "Scarborough" }, "geometry": { "type": "Point", "coordinates": [ -79.290513511888406, 43.796592574688503 ] } },
{ "type": "Feature", "properties": { "name": "Stilecroft Public School", "address": "50 Stilecroft Drive", "city": "North York", "postal code": "M3J 1A7", "municipality": "North York" }, "geometry": { "type": "Point", "coordinates": [ -79.49320509499999, 43.751055819 ] } },
{ "type": "Feature", "properties": { "name": "Martingrove Collegiate Institute", "address": "50 Winterton Drive", "city": "Etobicoke", "postal code": "M9B 3G7", "municipality": "Etobicoke" }, "geometry": { "type": "Point", "coordinates": [ -79.560742932539696, 43.673391350331499 ] } },
{ "type": "Feature", "properties": { "name": "Chine Drive Public School", "address": "51 Chine Drive", "city": "Scarborough", "postal code": "M1M 2K8", "municipality": "Scarborough" }, "geometry": { "type": "Point", "coordinates": [ -79.241796888, 43.709982589 ] } },
{ "type": "Feature", "properties": { "name": "Melody Village Junior School", "address": "520 Silverstone Drive", "city": "Etobicoke", "postal code": "M9V 3L5", "municipality": "Etobicoke" }, "geometry": { "type": "Point", "coordinates": [ -79.594845893622406, 43.7381433362469 ] } },
{ "type": "Feature", "properties": { "name": "Arbor Glen Public School", "address": "55 Freshmeadow Drive", "city": "North York", "postal code": "M2H 3H6", "municipality": "North York" }, "geometry": { "type": "Point", "coordinates": [ -79.355712681194603, 43.809494996098103 ] } },
{ "type": "Feature", "properties": { "name": "Alternative Scarborough Education 1", "address": "60 Brimorton Drive", "city": "Scarborough", "postal code": "M1P 3Z1", "municipality": "Scarborough" }, "geometry": { "type": "Point", "coordinates": [ -79.254799481909899, 43.766653856890898 ] } },
{ "type": "Feature", "properties": { "name": "St Andrews Public School", "address": "60 Brimorton Drive", "city": "Scarborough", "postal code": "M1P 3Z1", "municipality": "Scarborough" }, "geometry": { "type": "Point", "coordinates": [ -79.254799481909899, 43.766653856890898 ] } },
{ "type": "Feature", "properties": { "name": "George P Mackie Junior Public School", "address": "60 Heathfield Drive", "city": "Scarborough", "postal code": "M1M 3B1", "municipality": "Scarborough" }, "geometry": { "type": "Point", "coordinates": [ -79.211997153844905, 43.739335914621698 ] } },
{ "type": "Feature", "properties": { "name": "Briarcrest Junior School", "address": "60 Wellesworth Drive", "city": "Etobicoke", "postal code": "M9C 4R3", "municipality": "Etobicoke" }, "geometry": { "type": "Point", "coordinates": [ -79.580075285, 43.666465768 ] } },
{ "type": "Feature", "properties": { "name": "Duke of Connaught Junior and Senior Public School", "address": "70 Woodfield Road", "city": "Toronto", "postal code": "M4L 2W6", "municipality": "former Toronto" }, "geometry": { "type": "Point", "coordinates": [ -79.322046222254698, 43.666403137795498 ] } },
{ "type": "Feature", "properties": { "name": "Bendale Junior Public School", "address": "61 Benshire Drive", "city": "Scarborough", "postal code": "M1H 1M4", "municipality": "Scarborough" }, "geometry": { "type": "Point", "coordinates": [ -79.244883450909896, 43.762575729087501 ] } },
{ "type": "Feature", "properties": { "name": "Seneca Hill Public School", "address": "625 Seneca Hill Drive", "city": "North York", "postal code": "M2J 2W6", "municipality": "North York" }, "geometry": { "type": "Point", "coordinates": [ -79.350300222976301, 43.790879027945699 ] } },
{ "type": "Feature", "properties": { "name": "Princess Margaret Junior School", "address": "65 Tromley Drive", "city": "Etobicoke", "postal code": "M9B 5Y7", "municipality": "Etobicoke" }, "geometry": { "type": "Point", "coordinates": [ -79.559145688022497, 43.671315546875903 ] } },
{ "type": "Feature", "properties": { "name": "Brookhaven Public School", "address": "70 Brookhaven Drive", "city": "North York", "postal code": "M6M 4N8", "municipality": "North York" }, "geometry": { "type": "Point", "coordinates": [ -79.495697676805705, 43.702514892948798 ] } },
{ "type": "Feature", "properties": { "name": "Beaumonde Heights Junior Middle School", "address": "70 Monterrey Drive", "city": "Etobicoke", "postal code": "M9V 1T1", "municipality": "Etobicoke" }, "geometry": { "type": "Point", "coordinates": [ -79.575533843011797, 43.742965725888403 ] } },
{ "type": "Feature", "properties": { "name": "West Preparatory Junior Public School", "address": "70 Ridge Hill Drive", "city": "Toronto", "postal code": "M6C 2J6", "municipality": "former Toronto" }, "geometry": { "type": "Point", "coordinates": [ -79.433038285587799, 43.702752307673798 ] } },
{ "type": "Feature", "properties": { "name": "Park Lawn Junior Middle School", "address": "71 Ballacaine Drive", "city": "Etobicoke", "postal code": "M8Y 4B6", "municipality": "Etobicoke" }, "geometry": { "type": "Point", "coordinates": [ -79.496450189024401, 43.637715181811103 ] } },
{ "type": "Feature", "properties": { "name": "Churchill Heights Public School", "address": "749 Brimorton Drive", "city": "Scarborough", "postal code": "M1G 2S4", "municipality": "Scarborough" }, "geometry": { "type": "Point", "coordinates": [ -79.224395839795505, 43.772997722268002 ] } },
{ "type": "Feature", "properties": { "name": "Bennington Heights Elementary School", "address": "76 Bennington Heights Drive", "city": "East York", "postal code": "M4G 1B1", "municipality": "East York" }, "geometry": { "type": "Point", "coordinates": [ -79.369555866309497, 43.693891051931402 ] } },
{ "type": "Feature", "properties": { "name": "Three Valleys Public School", "address": "76 Three Valleys Drive", "city": "North York", "postal code": "M3A 3B7", "municipality": "North York" }, "geometry": { "type": "Point", "coordinates": [ -79.337623549386606, 43.750821476630698 ] } },
{ "type": "Feature", "properties": { "name": "Lester B Pearson Collegiate Institute", "address": "150 Tapscott Road", "city": "Scarborough", "postal code": "M1B 2L2", "municipality": "Scarborough" }, "geometry": { "type": "Point", "coordinates": [ -79.225401871798297, 43.803342535230698 ] } },
{ "type": "Feature", "properties": { "name": "Roden Public School", "address": "151 Hiawatha Road", "city": "Toronto", "postal code": "M4L 2Y1", "municipality": "former Toronto" }, "geometry": { "type": "Point", "coordinates": [ -79.323079695271105, 43.673881864857101 ] } },
{ "type": "Feature", "properties": { "name": "Birch Cliff Public School", "address": "1650 Kingston Road", "city": "Scarborough", "postal code": "M1N 1S2", "municipality": "Scarborough" }, "geometry": { "type": "Point", "coordinates": [ -79.265571824879103, 43.6919973180227 ] } },
{ "type": "Feature", "properties": { "name": "Glen Ames Senior Public School", "address": "18 Williamson Road", "city": "Toronto", "postal code": "M4E 1K5", "municipality": "former Toronto" }, "geometry": { "type": "Point", "coordinates": [ -79.298335440027898, 43.673968418308803 ] } },
{ "type": "Feature", "properties": { "name": "C D Farquharson Junior Public School", "address": "1965 Brimley Road", "city": "Agincourt", "postal code": "M1S 2B1", "municipality": "Scarborough" }, "geometry": { "type": "Point", "coordinates": [ -79.266108746220993, 43.7844757686427 ] } },
{ "type": "Feature", "properties": { "name": "North Kipling Junior Middle School", "address": "2 Rowntree Road", "city": "Etobicoke", "postal code": "M9V 5C7", "municipality": "Etobicoke" }, "geometry": { "type": "Point", "coordinates": [ -79.584892547, 43.751762093 ] } },
{ "type": "Feature", "properties": { "name": "Jackman Avenue Junior Public School", "address": "79 Jackman Avenue", "city": "Toronto", "postal code": "M4K 2X5", "municipality": "former Toronto" }, "geometry": { "type": "Point", "coordinates": [ -79.353938587694998, 43.6806588023628 ] } },
{ "type": "Feature", "properties": { "name": "Charles G Fraser Junior Public School", "address": "79 Manning Avenue", "city": "Toronto", "postal code": "M6J 2K6", "municipality": "former Toronto" }, "geometry": { "type": "Point", "coordinates": [ -79.409486868623404, 43.648538668325799 ] } },
{ "type": "Feature", "properties": { "name": "Oriole Park Junior Public School", "address": "80 Braemar Avenue", "city": "Toronto", "postal code": "M5P 2L4", "municipality": "former Toronto" }, "geometry": { "type": "Point", "coordinates": [ -79.4096965212768, 43.702580142360603 ] } },
{ "type": "Feature", "properties": { "name": "Heritage Park Public School", "address": "80 Old Finch Avenue", "city": "Scarborough", "postal code": "M1B 5J2", "municipality": "Scarborough" }, "geometry": { "type": "Point", "coordinates": [ -79.207720158, 43.821350885 ] } },
{ "type": "Feature", "properties": { "name": "Heather Heights Junior Public School", "address": "80 Slan Avenue", "city": "Scarborough", "postal code": "M1G 3B5", "municipality": "Scarborough" }, "geometry": { "type": "Point", "coordinates": [ -79.215071913437399, 43.7751644912492 ] } },
{ "type": "Feature", "properties": { "name": "Danforth Collegiate and Technical Institute", "address": "800 Greenwood Avenue", "city": "Toronto", "postal code": "M4J 4B7", "municipality": "former Toronto" }, "geometry": { "type": "Point", "coordinates": [ -79.3340927804568, 43.682847320548298 ] } },
{ "type": "Feature", "properties": { "name": "Bedford Park Public School", "address": "81 Ranleigh Avenue", "city": "Toronto", "postal code": "M4N 1X2", "municipality": "former Toronto" }, "geometry": { "type": "Point", "coordinates": [ -79.400027618, 43.727854697 ] } },
{ "type": "Feature", "properties": { "name": "Frankland Community School", "address": "816 Logan Avenue", "city": "Toronto", "postal code": "M4K 3E1", "municipality": "former Toronto" }, "geometry": { "type": "Point", "coordinates": [ -79.349937446, 43.677137339 ] } },
{ "type": "Feature", "properties": { "name": "Cottingham Junior Public School", "address": "85 Birch Avenue", "city": "Toronto", "postal code": "M4V 1E3", "municipality": "former Toronto" }, "geometry": { "type": "Point", "coordinates": [ -79.3956122531023, 43.6803880218906 ] } },
{ "type": "Feature", "properties": { "name": "John English Junior Middle School", "address": "95 Mimico Avenue", "city": "Etobicoke", "postal code": "M8V 1R4", "municipality": "Etobicoke" }, "geometry": { "type": "Point", "coordinates": [ -79.4944212654284, 43.611864307192903 ] } },
{ "type": "Feature", "properties": { "name": "Ryerson Community School", "address": "96 Denison Avenue", "city": "Toronto", "postal code": "M5T 1E4", "municipality": "former Toronto" }, "geometry": { "type": "Point", "coordinates": [ -79.402639903608005, 43.651229126024198 ] } },
{ "type": "Feature", "properties": { "name": "Keele Street Public School", "address": "99 Mountview Avenue", "city": "Toronto", "postal code": "M6P 2L5", "municipality": "former Toronto" }, "geometry": { "type": "Point", "coordinates": [ -79.461599837362002, 43.657516055322603 ] } },
{ "type": "Feature", "properties": { "name": "Mountview Alternative Junior School", "address": "99 Mountview Avenue", "city": "Toronto", "postal code": "M6P 2L5", "municipality": "former Toronto" }, "geometry": { "type": "Point", "coordinates": [ -79.461599837362002, 43.657516055322603 ] } },
{ "type": "Feature", "properties": { "name": "Oakwood Collegiate Institute", "address": "991 St Clair Avenue West", "city": "Toronto", "postal code": "M6E 1A3", "municipality": "former Toronto" }, "geometry": { "type": "Point", "coordinates": [ -79.436382261731396, 43.678664472987997 ] } },
{ "type": "Feature", "properties": { "name": "Westwood Middle School", "address": "994 Carlaw Avenue", "city": "East York", "postal code": "M4K 3M6", "municipality": "East York" }, "geometry": { "type": "Point", "coordinates": [ -79.35069605, 43.686693298 ] } },
{ "type": "Feature", "properties": { "name": "Delphi Secondary Alternative School", "address": "109 Chartland Boulevard South", "city": "Agincourt", "postal code": "M1S 2R7", "municipality": "Scarborough" }, "geometry": { "type": "Point", "coordinates": [ -79.277925504257993, 43.7996268602923 ] } },
{ "type": "Feature", "properties": { "name": "Chartland Junior Public School", "address": "109 Chartland Boulevard South", "city": "Agincourt", "postal code": "M1S 2R7", "municipality": "Scarborough" }, "geometry": { "type": "Point", "coordinates": [ -79.277925504257993, 43.7996268602923 ] } },
{ "type": "Feature", "properties": { "name": "Owen Public School", "address": "111 Owen Boulevard", "city": "North York", "postal code": "M2P 1G6", "municipality": "North York" }, "geometry": { "type": "Point", "coordinates": [ -79.392519439619804, 43.749064782314697 ] } },
{ "type": "Feature", "properties": { "name": "David Lewis Public School", "address": "130 Fundy Bay Boulevard", "city": "Agincourt", "postal code": "M1W 3G1", "municipality": "Scarborough" }, "geometry": { "type": "Point", "coordinates": [ -79.317889289558394, 43.809205321769099 ] } },
{ "type": "Feature", "properties": { "name": "Valley Park Middle School", "address": "130 Overlea Boulevard", "city": "Don Mills", "postal code": "M3C 1B2", "municipality": "North York" }, "geometry": { "type": "Point", "coordinates": [ -79.335873746575501, 43.710449188680002 ] } },
{ "type": "Feature", "properties": { "name": "Sir Samuel B Steele Junior Public School", "address": "131 Huntsmill Boulevard", "city": "Agincourt", "postal code": "M1W 2Y2", "municipality": "Scarborough" }, "geometry": { "type": "Point", "coordinates": [ -79.327445189743102, 43.806659323969498 ] } },
{ "type": "Feature", "properties": { "name": "Marc Garneau Collegiate Institute", "address": "135 Overlea Boulevard", "city": "East York", "postal code": "M3C 1B3", "municipality": "North York" }, "geometry": { "type": "Point", "coordinates": [ -79.334971165386307, 43.708984276703902 ] } },
{ "type": "Feature", "properties": { "name": "Sir Ernest MacMillan Senior Public School", "address": "149 Huntsmill Boulevard", "city": "Scarborough", "postal code": "M1W 2Y2", "municipality": "Scarborough" }, "geometry": { "type": "Point", "coordinates": [ -79.328196527447105, 43.806884875737403 ] } },
{ "type": "Feature", "properties": { "name": "Brimwood Boulevard Junior Public School", "address": "151 Brimwood Boulevard", "city": "Agincourt", "postal code": "M1V 1E5", "municipality": "Scarborough" }, "geometry": { "type": "Point", "coordinates": [ -79.274092871588095, 43.811708502846002 ] } },
{ "type": "Feature", "properties": { "name": "Chief Dan George Public School", "address": "185 Generation Boulevard", "city": "Scarborough", "postal code": "M1B 2K5", "municipality": "Scarborough" }, "geometry": { "type": "Point", "coordinates": [ -79.163837831450095, 43.802730929689602 ] } },
{ "type": "Feature", "properties": { "name": "Gracedale Public School", "address": "186 Gracedale Boulevard", "city": "North York", "postal code": "M9L 2C1", "municipality": "North York" }, "geometry": { "type": "Point", "coordinates": [ -79.561842109, 43.753197532 ] } },
{ "type": "Feature", "properties": { "name": "George Webster Elementary School", "address": "50 Chapman Ave", "city": "East York", "postal code": "M4B1C5", "municipality": "East York" }, "geometry": { "type": "Point", "coordinates": [ -79.299760621, 43.7010489 ] } },
{ "type": "Feature", "properties": { "name": "Danforth Gardens Public School", "address": "20 Santamonica Boulevard", "city": "Scarborough", "postal code": "M1L 4H4", "municipality": "Scarborough" }, "geometry": { "type": "Point", "coordinates": [ -79.270980595877106, 43.708464156496497 ] } },
{ "type": "Feature", "properties": { "name": "Thorncliffe Park Public School", "address": "80 Thorncliffe Park Drive", "city": "East York", "postal code": "M4H 1K3", "municipality": "East York" }, "geometry": { "type": "Point", "coordinates": [ -79.343436754, 43.705390041 ] } },
{ "type": "Feature", "properties": { "name": "Highfield Junior School", "address": "85 Mount Olive Drive", "city": "Etobicoke", "postal code": "M9V 2C9", "municipality": "Etobicoke" }, "geometry": { "type": "Point", "coordinates": [ -79.589209870238705, 43.7455842576083 ] } },
{ "type": "Feature", "properties": { "name": "Victoria Village Public School", "address": "88 Sweeney Drive", "city": "North York", "postal code": "M4A 1T7", "municipality": "North York" }, "geometry": { "type": "Point", "coordinates": [ -79.314185299511294, 43.735968018310302 ] } },
{ "type": "Feature", "properties": { "name": "Grenoble Public School", "address": "9 Grenoble Drive", "city": "North York", "postal code": "M3C 1C3", "municipality": "North York" }, "geometry": { "type": "Point", "coordinates": [ -79.332252505, 43.715274538 ] } },
{ "type": "Feature", "properties": { "name": "Manhattan Park Junior Public School", "address": "90 Manhattan Drive", "city": "Scarborough", "postal code": "M1R 3V8", "municipality": "Scarborough" }, "geometry": { "type": "Point", "coordinates": [ -79.295301123, 43.753354001 ] } },
{ "type": "Feature", "properties": { "name": "Brian Public School", "address": "95 Brian Drive", "city": "North York", "postal code": "M2J 3Y6", "municipality": "North York" }, "geometry": { "type": "Point", "coordinates": [ -79.331809837053697, 43.781728124853998 ] } },
{ "type": "Feature", "properties": { "name": "North Preparatory Junior Public School", "address": "1100 Spadina Road", "city": "Toronto", "postal code": "M5N 2M6", "municipality": "former Toronto" }, "geometry": { "type": "Point", "coordinates": [ -79.4203882813934, 43.705490918671799 ] } },
{ "type": "Feature", "properties": { "name": "Kingsview Village Junior School", "address": "1 York Road", "city": "Etobicoke", "postal code": "M9R 3C8", "municipality": "Etobicoke" }, "geometry": { "type": "Point", "coordinates": [ -79.550792415237098, 43.697875240151099 ] } },
{ "type": "Feature", "properties": { "name": "Flemington Public School", "address": "10 Flemington Road", "city": "North York", "postal code": "M6A 2N4", "municipality": "North York" }, "geometry": { "type": "Point", "coordinates": [ -79.444248926645997, 43.720133837607399 ] } },
{ "type": "Feature", "properties": { "name": "Bloordale Middle School", "address": "10 Toledo Road", "city": "Etobicoke", "postal code": "M9C 2H3", "municipality": "Etobicoke" }, "geometry": { "type": "Point", "coordinates": [ -79.571949819827694, 43.639154217593997 ] } },
{ "type": "Feature", "properties": { "name": "Courcelette Public School", "address": "100 Fallingbrook Road", "city": "Scarborough", "postal code": "M1N 2T6", "municipality": "Scarborough" }, "geometry": { "type": "Point", "coordinates": [ -79.2785691292613, 43.6793274199254 ] } },
{ "type": "Feature", "properties": { "name": "Derrydown Public School", "address": "120 Derrydown Road", "city": "North York", "postal code": "M3J 1R7", "municipality": "North York" }, "geometry": { "type": "Point", "coordinates": [ -79.493713461206596, 43.758698526916397 ] } },
{ "type": "Feature", "properties": { "name": "George B Little Public School", "address": "125 Orton Park Road", "city": "Scarborough", "postal code": "M1G 3G9", "municipality": "Scarborough" }, "geometry": { "type": "Point", "coordinates": [ -79.208113638433005, 43.771208022832901 ] } },
{ "type": "Feature", "properties": { "name": "John G Althouse Middle School", "address": "130 Lloyd Manor Road", "city": "Etobicoke", "postal code": "M9B 5K1", "municipality": "Etobicoke" }, "geometry": { "type": "Point", "coordinates": [ -79.554164742508206, 43.668124987878798 ] } },
{ "type": "Feature", "properties": { "name": "Warren Park Junior Public School", "address": "135 Varsity Road", "city": "York", "postal code": "M6S 4P4", "municipality": "York" }, "geometry": { "type": "Point", "coordinates": [ -79.499440790959099, 43.662851341816904 ] } },
{ "type": "Feature", "properties": { "name": "Cedarvale Community School", "address": "145 Ava Road", "city": "York", "postal code": "M6C 1W4", "municipality": "York" }, "geometry": { "type": "Point", "coordinates": [ -79.430330814514804, 43.696138870513401 ] } },
{ "type": "Feature", "properties": { "name": "Greenland Public School", "address": "15 Greenland Road", "city": "North York", "postal code": "M3C 1N1", "municipality": "North York" }, "geometry": { "type": "Point", "coordinates": [ -79.338536158016595, 43.733615633755399 ] } },
{ "type": "Feature", "properties": { "name": "White Haven Public School", "address": "105 Invergordon Avenue", "city": "Agincourt", "postal code": "M1S 2Z1", "municipality": "Scarborough" }, "geometry": { "type": "Point", "coordinates": [ -79.248054100715507, 43.787004021019598 ] } },
{ "type": "Feature", "properties": { "name": "Wexford Public School", "address": "1050 Pharmacy Avenue", "city": "Scarborough", "postal code": "M1R 2H1", "municipality": "Scarborough" }, "geometry": { "type": "Point", "coordinates": [ -79.303730527840898, 43.740198947224499 ] } },
{ "type": "Feature", "properties": { "name": "Seventh Street Junior School", "address": "101 Seventh Street", "city": "Etobicoke", "postal code": "M8V 3B5", "municipality": "Etobicoke" }, "geometry": { "type": "Point", "coordinates": [ -79.504630538, 43.599910689 ] } },
{ "type": "Feature", "properties": { "name": "Norseman Junior Middle School", "address": "105 Norseman Street", "city": "Etobicoke", "postal code": "M8Z 2R1", "municipality": "Etobicoke" }, "geometry": { "type": "Point", "coordinates": [ -79.51632975, 43.63430526 ] } },
{ "type": "Feature", "properties": { "name": "Riverdale Collegiate Institute", "address": "1094 Gerrard Street East", "city": "Toronto", "postal code": "M4M 2A1", "municipality": "former Toronto" }, "geometry": { "type": "Point", "coordinates": [ -79.334863039896703, 43.670056282872103 ] } },
{ "type": "Feature", "properties": { "name": "King Edward Junior and Senior Public School", "address": "112 Lippincott Street", "city": "Toronto", "postal code": "M5S 2P1", "municipality": "former Toronto" }, "geometry": { "type": "Point", "coordinates": [ -79.407412174931295, 43.658252698104398 ] } },
{ "type": "Feature", "properties": { "name": "Bloor Collegiate Institute", "address": "1141 Bloor Street West", "city": "Toronto", "postal code": "M6H 1M9", "municipality": "former Toronto" }, "geometry": { "type": "Point", "coordinates": [ -79.436286084634403, 43.6595660095646 ] } },
{ "type": "Feature", "properties": { "name": "Monarch Park Collegiate Institute", "address": "1 Hanson Street", "city": "Toronto", "postal code": "M4J 1G6", "municipality": "former Toronto" }, "geometry": { "type": "Point", "coordinates": [ -79.322771888, 43.67928073 ] } },
{ "type": "Feature", "properties": { "name": "C R Marchant Middle School", "address": "1 Ralph Street", "city": "York", "postal code": "M9N 3A8", "municipality": "York" }, "geometry": { "type": "Point", "coordinates": [ -79.512936675886195, 43.7017300635925 ] } },
{ "type": "Feature", "properties": { "name": "Central Etobicoke High School", "address": "10 Denfield Street", "city": "Etobicoke", "postal code": "M9R 3H1", "municipality": "Etobicoke" }, "geometry": { "type": "Point", "coordinates": [ -79.555488934, 43.679018556 ] } },
{ "type": "Feature", "properties": { "name": "Weston Collegiate Institute", "address": "100 Pine Street", "city": "York", "postal code": "M9N 2Y9", "municipality": "York" }, "geometry": { "type": "Point", "coordinates": [ -79.509425026543099, 43.703824899400502 ] } },
{ "type": "Feature", "properties": { "name": "Contact Alternative School", "address": "132 St Patrick Street, 3rd Floor", "city": "Toronto", "postal code": "M5T 1V1", "municipality": "former Toronto" }, "geometry": { "type": "Point", "coordinates": [ -79.390397138516406, 43.653774313534697 ] } },
{ "type": "Feature", "properties": { "name": "Scarborough Village Public School", "address": "15 Luella Street", "city": "Scarborough", "postal code": "M1J 3P2", "municipality": "Scarborough" }, "geometry": { "type": "Point", "coordinates": [ -79.222074980974895, 43.744127967432597 ] } },
{ "type": "Feature", "properties": { "name": "Winchester Junior and Senior Public School", "address": "15 Prospect Street", "city": "Toronto", "postal code": "M4X 1C7", "municipality": "former Toronto" }, "geometry": { "type": "Point", "coordinates": [ -79.371110405620101, 43.666556682645698 ] } },
{ "type": "Feature", "properties": { "name": "George Harvey Collegiate Institute", "address": "1700 Keele Street", "city": "York", "postal code": "M6M 3W5", "municipality": "York" }, "geometry": { "type": "Point", "coordinates": [ -79.47369919099999, 43.684546506 ] } },
{ "type": "Feature", "properties": { "name": "Orde Street Public School", "address": "18 Orde Street", "city": "Toronto", "postal code": "M5T 1N7", "municipality": "former Toronto" }, "geometry": { "type": "Point", "coordinates": [ -79.392260082, 43.658627488 ] } },
{ "type": "Feature", "properties": { "name": "Inglenook Community School", "address": "19 Sackville Street", "city": "Toronto", "postal code": "M5A 3E1", "municipality": "former Toronto" }, "geometry": { "type": "Point", "coordinates": [ -79.359403945834799, 43.653983870859904 ] } },
{ "type": "Feature", "properties": { "name": "Charles E Webster Public School", "address": "1900 Keele Street", "city": "York", "postal code": "M6M 3X7", "municipality": "York" }, "geometry": { "type": "Point", "coordinates": [ -79.475102781967195, 43.693443027674498 ] } },
{ "type": "Feature", "properties": { "name": "ALPHA Alternative Junior School", "address": "20 Brant Street", "city": "Toronto", "postal code": "M5V 2M1", "municipality": "former Toronto" }, "geometry": { "type": "Point", "coordinates": [ -79.398225821463797, 43.645730608981403 ] } },
{ "type": "Feature", "properties": { "name": "Oasis Alternative Secondary School (Arts & Social Change Program)", "address": "20 Brant Street", "city": "Toronto", "postal code": "M5V 2M1", "municipality": "former Toronto" }, "geometry": { "type": "Point", "coordinates": [ -79.398225821463797, 43.645730608981403 ] } },
{ "type": "Feature", "properties": { "name": "Weston Memorial Junior Public School", "address": "200 John Street", "city": "York", "postal code": "M9N 1K2", "municipality": "York" }, "geometry": { "type": "Point", "coordinates": [ -79.509333210258802, 43.705986736499597 ] } },
{ "type": "Feature", "properties": { "name": "George R Gauld Junior School", "address": "200 Melrose Street", "city": "Etobicoke", "postal code": "M8Y 1B7", "municipality": "Etobicoke" }, "geometry": { "type": "Point", "coordinates": [ -79.498522690169395, 43.620645665366098 ] } },
{ "type": "Feature", "properties": { "name": "Niagara Street Junior Public School", "address": "222 Niagara Street", "city": "Toronto", "postal code": "M6J 2L3", "municipality": "former Toronto" }, "geometry": { "type": "Point", "coordinates": [ -79.408256168886496, 43.643946041077903 ] } },
{ "type": "Feature", "properties": { "name": "Fairbank Public School", "address": "2335 Dufferin Street", "city": "York", "postal code": "M6E 3S5", "municipality": "York" }, "geometry": { "type": "Point", "coordinates": [ -79.449421011369907, 43.694362492735799 ] } },
{ "type": "Feature", "properties": { "name": "Leslieville Junior Public School", "address": "254 Leslie Street", "city": "Toronto", "postal code": "M4M 3C9", "municipality": "former Toronto" }, "geometry": { "type": "Point", "coordinates": [ -79.332410943010004, 43.667329353168 ] } },
{ "type": "Feature", "properties": { "name": "Annette Street Junior and Senior Public School", "address": "265 Annette Street", "city": "Toronto", "postal code": "M6P 1R3", "municipality": "former Toronto" }, "geometry": { "type": "Point", "coordinates": [ -79.4728345370835, 43.661431770061 ] } },
{ "type": "Feature", "properties": { "name": "High Park Alternative Junior School", "address": "265 Annette Street", "city": "Toronto", "postal code": "M6P 1R3", "municipality": "former Toronto" }, "geometry": { "type": "Point", "coordinates": [ -79.4728345370835, 43.661431770061 ] } },
{ "type": "Feature", "properties": { "name": "Lucy McCormick Senior School", "address": "2717 Dundas Street West", "city": "Toronto", "postal code": "M6P 1Y1", "municipality": "former Toronto" }, "geometry": { "type": "Point", "coordinates": [ -79.46017997, 43.664632602 ] } },
{ "type": "Feature", "properties": { "name": "Downsview Public School", "address": "2829 Keele Street", "city": "North York", "postal code": "M3M 2G7", "municipality": "North York" }, "geometry": { "type": "Point", "coordinates": [ -79.482439064510601, 43.731122437851099 ] } },
{ "type": "Feature", "properties": { "name": "Harbord Collegiate Institute", "address": "286 Harbord Street", "city": "Toronto", "postal code": "M6G 1G5", "municipality": "former Toronto" }, "geometry": { "type": "Point", "coordinates": [ -79.414266618, 43.661289515 ] } },
{ "type": "Feature", "properties": { "name": "H J Alexander Community School", "address": "30 King Street", "city": "York", "postal code": "M9N 1K9", "municipality": "York" }, "geometry": { "type": "Point", "coordinates": [ -79.520547545732001, 43.702502411258202 ] } },
{ "type": "Feature", "properties": { "name": "Howard Junior Public School", "address": "30 Marmaduke Street", "city": "Toronto", "postal code": "M6R 1T2", "municipality": "former Toronto" }, "geometry": { "type": "Point", "coordinates": [ -79.45199586299999, 43.65029872 ] } },
{ "type": "Feature", "properties": { "name": "Carleton Village Junior and Senior Sports and Wellness Academy", "address": "315 Osler Street", "city": "Toronto", "postal code": "M6N 2Z4", "municipality": "former Toronto" }, "geometry": { "type": "Point", "coordinates": [ -79.460032057332896, 43.672361388268399 ] } },
{ "type": "Feature", "properties": { "name": "Downsview Secondary School", "address": "7 Hawksdale Road", "city": "North York", "postal code": "M3K 1W3", "municipality": "North York" }, "geometry": { "type": "Point", "coordinates": [ -79.479660883342405, 43.730404344485798 ] } },
{ "type": "Feature", "properties": { "name": "John G Diefenbaker Public School", "address": "70 Dean Park Road", "city": "Scarborough", "postal code": "M1B 2X3", "municipality": "Scarborough" }, "geometry": { "type": "Point", "coordinates": [ -79.171872718150794, 43.802303650993601 ] } },
{ "type": "Feature", "properties": { "name": "Tecumseh Senior Public School", "address": "720 Scarborough Golf Club Road", "city": "Scarborough", "postal code": "M1G 1H7", "municipality": "Scarborough" }, "geometry": { "type": "Point", "coordinates": [ -79.216730223720205, 43.762915648539298 ] } },
{ "type": "Feature", "properties": { "name": "Norman Cook Junior Public School", "address": "725 Danforth Road", "city": "Scarborough", "postal code": "M1K 1G4", "municipality": "Scarborough" }, "geometry": { "type": "Point", "coordinates": [ -79.257798318936594, 43.719047732667697 ] } },
{ "type": "Feature", "properties": { "name": "Golf Road Junior Public School", "address": "730 Scarborough Golf Club Road", "city": "Scarborough", "postal code": "M1G 1H7", "municipality": "Scarborough" }, "geometry": { "type": "Point", "coordinates": [ -79.216973427381106, 43.763666924190098 ] } },
{ "type": "Feature", "properties": { "name": "Stanley Public School", "address": "75 Stanley Road", "city": "North York", "postal code": "M3N 1C2", "municipality": "North York" }, "geometry": { "type": "Point", "coordinates": [ -79.517830332303305, 43.741839779183401 ] } },
{ "type": "Feature", "properties": { "name": "Westview Centennial Secondary School", "address": "755 Oakdale Road", "city": "North York", "postal code": "M3N 1W7", "municipality": "North York" }, "geometry": { "type": "Point", "coordinates": [ -79.525090535, 43.75239763 ] } },
{ "type": "Feature", "properties": { "name": "Meadowvale Public School", "address": "761 Meadowvale Road", "city": "West Hill", "postal code": "M1C 1T1", "municipality": "Scarborough" }, "geometry": { "type": "Point", "coordinates": [ -79.164068184, 43.795511013 ] } },
{ "type": "Feature", "properties": { "name": "Mason Road Junior Public School", "address": "78 Mason Road", "city": "Scarborough", "postal code": "M1M 3R2", "municipality": "Scarborough" }, "geometry": { "type": "Point", "coordinates": [ -79.225686180772001, 43.739263394191198 ] } },
{ "type": "Feature", "properties": { "name": "Bowmore Road Junior and Senior Public School", "address": "80 Bowmore Road", "city": "Toronto", "postal code": "M4L 3J2", "municipality": "former Toronto" }, "geometry": { "type": "Point", "coordinates": [ -79.314491719, 43.676063663 ] } },
{ "type": "Feature", "properties": { "name": "Harrison Public School", "address": "81 Harrison Road", "city": "North York", "postal code": "M2L 1V9", "municipality": "North York" }, "geometry": { "type": "Point", "coordinates": [ -79.377311857955206, 43.757377072095103 ] } },
{ "type": "Feature", "properties": { "name": "Northern Secondary School", "address": "851 Mount Pleasant Road", "city": "Toronto", "postal code": "M4P 2L5", "municipality": "former Toronto" }, "geometry": { "type": "Point", "coordinates": [ -79.390167538900101, 43.710545690432198 ] } },
{ "type": "Feature", "properties": { "name": "Etobicoke Collegiate Institute", "address": "86 Montgomery Road", "city": "Etobicoke", "postal code": "M9A 3N5", "municipality": "Etobicoke" }, "geometry": { "type": "Point", "coordinates": [ -79.522299488030299, 43.650092780458401 ] } },