{
  "type": "FeatureCollection",
  "features": [
    { "type": "Feature", "properties": { "name": "Adam Beck Community Centre", "address": "79 LAWLOR AVE", "phone number": "416-392-0741" }, "geometry": { "type": "Point", "coordinates": [ -79.2888497, 43.6828607 ] } },
    { "type": "Feature", "properties": { "name": "Agincourt Recreation Centre", "address": "31 GLEN WATFORD DR", "phone number": "416-396-4037" }, "geometry": { "type": "Point", "coordinates": [ -79.275682, 43.7886184 ] } },
    { "type": "Feature", "properties": { "name": "Albion Arena", "address": "1501 ALBION RD", "phone number": "416-394-8690" }, "geometry": { "type": "Point", "coordinates": [ -79.5827553, 43.7395848 ] } },
    { "type": "Feature", "properties": { "name": "Albion Pool and Health Club", "address": "1485 ALBION RD", "phone number": "416-394-8676" }, "geometry": { "type": "Point", "coordinates": [ -79.58122999999999, 43.7393169 ] } },
    { "type": "Feature", "properties": { "name": "Amesbury Community Centre", "address": "1507 LAWRENCE AVE", "phone number": "416-395-0145" }, "geometry": { "type": "Point", "coordinates": [ -79.4826484, 43.7071049 ] } },
    { "type": "Feature", "properties": { "name": "Ancaster Community Centre", "address": "41 ANCASTER RD", "phone number": "416-395-6057" }, "geometry": { "type": "Point", "coordinates": [ -79.4655983, 43.73255349999999 ] } },
    { "type": "Feature", "properties": { "name": "Angela James Arena", "address": "165 GRENOBLE DR", "phone number": "" }, "geometry": { "type": "Point", "coordinates": [ -79.327632, 43.7131737 ] } },
    { "type": "Feature", "properties": { "name": "Annette Community Recreation Centre", "address": "333 ANNETTE ST", "phone number": "416-392-0736" }, "geometry": { "type": "Point", "coordinates": [ -79.4741423, 43.6612129 ] } },
    { "type": "Feature", "properties": { "name": "Antibes Community Centre", "address": "140 ANTIBES DR", "phone number": "416-395-0096" }, "geometry": { "type": "Point", "coordinates": [ -79.44691879999999, 43.7811732 ] } },
    { "type": "Feature", "properties": { "name": "Armour Heights Community Centre", "address": "2140 AVENUE RD", "phone number": "416-395-7848" }, "geometry": { "type": "Point", "coordinates": [ -79.4218625, 43.7394128 ] } },
    { "type": "Feature", "properties": { "name": "Balmy Beach Community Recreation Centre", "address": "14 PINE AVE", "phone number": "416-392-6972" }, "geometry": { "type": "Point", "coordinates": [ -79.2898302, 43.6764445 ] } },
    { "type": "Feature", "properties": { "name": "Banbury Community Centre", "address": "120 BANBURY RD", "phone number": "416-395-6101" }, "geometry": { "type": "Point", "coordinates": [ -79.36948389999999, 43.7428011 ] } },
    { "type": "Feature", "properties": { "name": "Barbara Frum Community Centre", "address": "20 COVINGTON RD", "phone number": "416-395-6123" }, "geometry": { "type": "Point", "coordinates": [ -79.4321922, 43.7207824 ] } },
    { "type": "Feature", "properties": { "name": "Beaches Recreation Centre", "address": "6 WILLIAMSON RD", "phone number": "416-392-0740" }, "geometry": { "type": "Point", "coordinates": [ -79.2988103, 43.6739396 ] } },
    { "type": "Feature", "properties": { "name": "Bedford Park Community Centre", "address": "81 RANLEIGH AVE", "phone number": "416-392-0618" }, "geometry": { "type": "Point", "coordinates": [ -79.4002692, 43.72772459999999 ] } },
    { "type": "Feature", "properties": { "name": "Berner Trail Community Centre", "address": "120 BERNER TRAIL", "phone number": "416-396-4054" }, "geometry": { "type": "Point", "coordinates": [ -79.2210971, 43.80153989999999 ] } },
    { "type": "Feature", "properties": { "name": "Birchmount Community Centre", "address": "93 BIRCHMOUNT RD", "phone number": "416-396-4311" }, "geometry": { "type": "Point", "coordinates": [ -79.2621175, 43.695435 ] } },
    { "type": "Feature", "properties": { "name": "Birkdale Community Centre", "address": "1299 ELLESMERE RD", "phone number": "416-396-4069" }, "geometry": { "type": "Point", "coordinates": [ -79.2648499, 43.7690476 ] } },
    { "type": "Feature", "properties": { "name": "Bloordale Community School", "address": "10 TOLEDO RD", "phone number": "416-394-8699" }, "geometry": { "type": "Point", "coordinates": [ -79.5727235, 43.6390233 ] } },
    { "type": "Feature", "properties": { "name": "Bob Abate Community Recreation Centre", "address": "485 MONTROSE AVE", "phone number": "416-392-0744" }, "geometry": { "type": "Point", "coordinates": [ -79.4204032, 43.6625682 ] } },
    { "type": "Feature", "properties": { "name": "Broadlands Community Centre", "address": "19 CASTLEGROVE BLVD", "phone number": "416-395-7966" }, "geometry": { "type": "Point", "coordinates": [ -79.3227464, 43.74591179999999 ] } },
    { "type": "Feature", "properties": { "name": "Brown Community Centre", "address": "454 AVENUE RD", "phone number": "416-392-6826" }, "geometry": { "type": "Point", "coordinates": [ -79.4009306, 43.6847687 ] } },
    { "type": "Feature", "properties": { "name": "Burrows Hall Community Centre", "address": "1081 PROGRESS AVE", "phone number": "416-396-4670" }, "geometry": { "type": "Point", "coordinates": [ -79.23422219999999, 43.7939492 ] } },
    { "type": "Feature", "properties": { "name": "Carmine Stefano Community Centre", "address": "3100 WESTON RD", "phone number": "416-395-6127" }, "geometry": { "type": "Point", "coordinates": [ -79.5391369, 43.7329924 ] } },
    { "type": "Feature", "properties": { "name": "Cedarbrook Community Centre", "address": "91 EASTPARK BLVD", "phone number": "416-396-4028" }, "geometry": { "type": "Point", "coordinates": [ -79.2274533, 43.7556212 ] } },
    { "type": "Feature", "properties": { "name": "Centennial Park Arena", "address": "156 CENTENNIAL PARK RD", "phone number": "416-394-8758" }, "geometry": { "type": "Point", "coordinates": [ -79.58546009999999, 43.6560925 ] } },
    { "type": "Feature", "properties": { "name": "Centennial Recreation Centre - Scarborough", "address": "1967 ELLESMERE RD", "phone number": "416-396-4057" }, "geometry": { "type": "Point", "coordinates": [ -79.2367624, 43.7748642 ] } },
    { "type": "Feature", "properties": { "name": "Central Arena", "address": "50 MONTGOMERY RD", "phone number": "416-394-5439" }, "geometry": { "type": "Point", "coordinates": [ -79.5200668, 43.6495364 ] } },
    { "type": "Feature", "properties": { "name": "Chalkfarm Community Centre", "address": "180 CHALKFARM DR", "phone number": "416-395-7802" }, "geometry": { "type": "Point", "coordinates": [ -79.5122873, 43.7242099 ] } },
    { "type": "Feature", "properties": { "name": "Chris Tonks Arena", "address": "95 BLACK CREEK DR", "phone number": "416-394-2733" }, "geometry": { "type": "Point", "coordinates": [ -79.47891349999999, 43.6876055 ] } },
    { "type": "Feature", "properties": { "name": "Commander Recreation Centre", "address": "140 COMMANDER BLVD", "phone number": "416-396-4024" }, "geometry": { "type": "Point", "coordinates": [ -79.2679311, 43.794981 ] } },
    { "type": "Feature", "properties": { "name": "Cummer Park Community Centre", "address": "6000 LESLIE ST", "phone number": "416-395-7803" }, "geometry": { "type": "Point", "coordinates": [ -79.3718061, 43.7997038 ] } },
    { "type": "Feature", "properties": { "name": "Curran Hall Community Centre", "address": "277 ORTON PARK RD", "phone number": "416-396-5156" }, "geometry": { "type": "Point", "coordinates": [ -79.2108224, 43.7774273 ] } },
    { "type": "Feature", "properties": { "name": "Davenport 1347", "address": "1347 DAVENPORT RD", "phone number": "" }, "geometry": { "type": "Point", "coordinates": [ -79.4396877, 43.6731206 ] } },
    { "type": "Feature", "properties": { "name": "David Appleton Community Recreation", "address": "33 PRITCHARD AVE", "phone number": "416-394-2896" }, "geometry": { "type": "Point", "coordinates": [ -79.4890826, 43.6702226 ] } },
    { "type": "Feature", "properties": { "name": "Dennis R. Timbrell Resource Centre", "address": "29 ST DENNIS DR", "phone number": "416-395-7972" }, "geometry": { "type": "Point", "coordinates": [ -79.3318571, 43.7178658 ] } },
    { "type": "Feature", "properties": { "name": "Domenico Di Luca Community Recreation Centre", "address": "25 STANLEY RD", "phone number": "416 395-6673" }, "geometry": { "type": "Point", "coordinates": [ -79.51577259999999, 43.7424592 ] } },
    { "type": "Feature", "properties": { "name": "Don Montgomery Community Centre", "address": "2467 EGLINTON AVE", "phone number": "416-396-4043" }, "geometry": { "type": "Point", "coordinates": [ -79.2612216, 43.7327334 ] } },
    { "type": "Feature", "properties": { "name": "Downsview Arena", "address": "1633 WILSON AVE", "phone number": "416-395-7831" }, "geometry": { "type": "Point", "coordinates": [ -79.512654, 43.7190312 ] } },
    { "type": "Feature", "properties": { "name": "Driftwood Community Recreation Centre", "address": "4401 JANE ST", "phone number": "416-395-7944" }, "geometry": { "type": "Point", "coordinates": [ -79.5188033, 43.7653503 ] } },
    { "type": "Feature", "properties": { "name": "Earl Bales Community Centre", "address": "4169 BATHURST ST", "phone number": "416-395-7873" }, "geometry": { "type": "Point", "coordinates": [ -79.4371689, 43.7508121 ] } },
    { "type": "Feature", "properties": { "name": "Earl Beatty Community Centre", "address": "455 GLEBEHOLME BLVD", "phone number": "416-392-0752" }, "geometry": { "type": "Point", "coordinates": [ -79.3212939, 43.6859133 ] } },
    { "type": "Feature", "properties": { "name": "East York Community Centre", "address": "1081 PAPE AVE", "phone number": "416-396-2880" }, "geometry": { "type": "Point", "coordinates": [ -79.34931739999999, 43.6913002 ] } },
    { "type": "Feature", "properties": { "name": "East York Curling Club", "address": "901 COSBURN AVE", "phone number": "416-396-2816" }, "geometry": { "type": "Point", "coordinates": [ -79.3135613, 43.696879 ] } },
    { "type": "Feature", "properties": { "name": "Edenbridge Centre", "address": "235 EDENBRIDGE DR", "phone number": "416-392-2451" }, "geometry": { "type": "Point", "coordinates": [ -79.5089498, 43.680731 ] } },
    { "type": "Feature", "properties": { "name": "Edgehill House", "address": "61 EDGEHILL RD", "phone number": "416-392-2724" }, "geometry": { "type": "Point", "coordinates": [ -79.51698499999999, 43.6706026 ] } },
    { "type": "Feature", "properties": { "name": "Edithvale Community Centre", "address": "131 FINCH AVE", "phone number": "416-395-6164" }, "geometry": { "type": "Point", "coordinates": [ -79.42649349999999, 43.77701920000001 ] } },
    { "type": "Feature", "properties": { "name": "Ellesmere Community Centre", "address": "20 CANADIAN RD", "phone number": "416-396-5536" }, "geometry": { "type": "Point", "coordinates": [ -79.29851099999999, 43.760029 ] } },
    { "type": "Feature", "properties": { "name": "Elmbank Community Centre", "address": "10 RAMPART RD", "phone number": "416-394-8671" }, "geometry": { "type": "Point", "coordinates": [ -79.58870019999999, 43.7347755 ] } },
    { "type": "Feature", "properties": { "name": "Etobicoke Olympium", "address": "590 RATHBURN RD", "phone number": "416-394-8111" }, "geometry": { "type": "Point", "coordinates": [ -79.58434799999999, 43.6502671 ] } },
    { "type": "Feature", "properties": { "name": "Fairbank Memorial Community Centre", "address": "2213 DUFFERIN ST", "phone number": "416-394-2473" }, "geometry": { "type": "Point", "coordinates": [ -79.4480177, 43.6912192 ] } },
    { "type": "Feature", "properties": { "name": "Fairfield Seniors' Centre", "address": "80 LOTHIAN AVE", "phone number": "416-394-8687" }, "geometry": { "type": "Point", "coordinates": [ -79.5193352, 43.6397826 ] } },
    { "type": "Feature", "properties": { "name": "Fairmount Park Community Centre", "address": "1757 GERRARD ST", "phone number": "416-392-7060" }, "geometry": { "type": "Point", "coordinates": [ -79.31472080000002, 43.6765569 ] } },
    { "type": "Feature", "properties": { "name": "Falstaff Community Centre", "address": "50 FALSTAFF AVE", "phone number": "416-395-1199" }, "geometry": { "type": "Point", "coordinates": [ -79.5038247, 43.71662200000001 ] } },
    { "type": "Feature", "properties": { "name": "Flemingdon Community Centre and Playground Paradise", "address": "150 GRENOBLE DR", "phone number": "416-395-6014" }, "geometry": { "type": "Point", "coordinates": [ -79.3264346, 43.7135421 ] } },
    { "type": "Feature", "properties": { "name": "Frankland Community Centre", "address": "816 LOGAN AVE", "phone number": "416-392-0749" }, "geometry": { "type": "Point", "coordinates": [ -79.35018749999999, 43.67733459999999 ] } },
    { "type": "Feature", "properties": { "name": "Glen Long Community Centre", "address": "35 GLEN LONG AVE", "phone number": "416-395-7961" }, "geometry": { "type": "Point", "coordinates": [ -79.4556185, 43.7088417 ] } },
    { "type": "Feature", "properties": { "name": "Gord and Irene Risk Community Centre", "address": "2650 FINCH AVE", "phone number": "416-395-0355" }, "geometry": { "type": "Point", "coordinates": [ -79.56649, 43.747321 ] } },
    { "type": "Feature", "properties": { "name": "Goulding Community Centre", "address": "45 GOULDING AVE", "phone number": "416-395-0123" }, "geometry": { "type": "Point", "coordinates": [ -79.42216440000001, 43.7906023 ] } },
    { "type": "Feature", "properties": { "name": "Grandravine Community Recreation Centre", "address": "23 GRANDRAVINE DR", "phone number": "416-395-6171" }, "geometry": { "type": "Point", "coordinates": [ -79.4905672, 43.75188199999999 ] } },
    { "type": "Feature", "properties": { "name": "Gus Ryder Pool and Health Club", "address": "1 FAUSTINA DR", "phone number": "416-394-8726" }, "geometry": { "type": "Point", "coordinates": [ -79.5219656, 43.601245 ] } },
    { "type": "Feature", "properties": { "name": "Habitant Arena", "address": "3383 WESTON RD", "phone number": "416-395-7949" }, "geometry": { "type": "Point", "coordinates": [ -79.5402592, 43.746955 ] } },
    { "type": "Feature", "properties": { "name": "Harrison Pool", "address": "15 STEPHANIE ST", "phone number": "416-392-7984" }, "geometry": { "type": "Point", "coordinates": [ -79.390818, 43.65106979999999 ] } },
    { "type": "Feature", "properties": { "name": "Harwood Hall", "address": "85 CAYUGA AVE", "phone number": "416-394-2747" }, "geometry": { "type": "Point", "coordinates": [ -79.4788037, 43.6785805 ] } },
    { "type": "Feature", "properties": { "name": "Herbert H. Carnegie Centennial Centre", "address": "580 FINCH AVE", "phone number": "416-395-6067" }, "geometry": { "type": "Point", "coordinates": [ -79.4500554, 43.77330389999999 ] } },
    { "type": "Feature", "properties": { "name": "Heron Park Community Centre", "address": "292 MANSE RD", "phone number": "416-396-4035" }, "geometry": { "type": "Point", "coordinates": [ -79.1768909, 43.7685058 ] } },
    { "type": "Feature", "properties": { "name": "Hillcrest Community Centre", "address": "1339 BATHURST ST", "phone number": "416-392-0746" }, "geometry": { "type": "Point", "coordinates": [ -79.416333, 43.6792373 ] } },
    { "type": "Feature", "properties": { "name": "Hilltop Middle Public School", "address": "35 TREHORNE DR", "phone number": "416-394-8701" }, "geometry": { "type": "Point", "coordinates": [ -79.5331207, 43.6891375 ] } },
    { "type": "Feature", "properties": { "name": "Hollycrest Middle Public School", "address": "630 RENFORTH DR", "phone number": "416-394-8703" }, "geometry": { "type": "Point", "coordinates": [ -79.5825556, 43.6560982 ] } },
    { "type": "Feature", "properties": { "name": "Holy Family Community Centre", "address": "141 CLOSE AVE", "phone number": "416-392-6695" }, "geometry": { "type": "Point", "coordinates": [ -79.4346151, 43.63857410000001 ] } },
    { "type": "Feature", "properties": { "name": "Horner Avenue Seniors Centre", "address": "320 HORNER AVE", "phone number": "416-394-6000" }, "geometry": { "type": "Point", "coordinates": [ -79.5268187, 43.6062775 ] } },
    { "type": "Feature", "properties": { "name": "Humberwood Community Centre", "address": "850 HUMBERWOOD BLVD", "phone number": "416-394-5700" }, "geometry": { "type": "Point", "coordinates": [ -79.6191535, 43.7287533 ] } },
    { "type": "Feature", "properties": { "name": "Irving W. Chapley Community Centre", "address": "205 WILMINGTON AVE", "phone number": "416-395-0453" }, "geometry": { "type": "Point", "coordinates": [ -79.45584149999999, 43.7615487 ] } },
    { "type": "Feature", "properties": { "name": "Islington Community School", "address": "44 CORDOVA AVE", "phone number": "416-394-8705" }, "geometry": { "type": "Point", "coordinates": [ -79.5276102, 43.6479304 ] } },
    { "type": "Feature", "properties": { "name": "Islington Seniors' Centre", "address": "4968 DUNDAS ST", "phone number": "416-231-3431" }, "geometry": { "type": "Point", "coordinates": [ -79.53000689999999, 43.6476187 ] } },
    { "type": "Feature", "properties": { "name": "Jack Goodlad Community Centre", "address": "929 KENNEDY RD", "phone number": "416-396-7566" }, "geometry": { "type": "Point", "coordinates": [ -79.2697348, 43.7425258 ] } },
    { "type": "Feature", "properties": { "name": "James S. Bell Junior Middle School", "address": "90 THIRTY FIRST ST", "phone number": "416-394-8707" }, "geometry": { "type": "Point", "coordinates": [ -79.52998149999999, 43.59394959999999 ] } },
    { "type": "Feature", "properties": { "name": "Jenner Jean-Marie Community Centre", "address": "48 THORNCLIFFE PARK DR", "phone number": "416-396-2874" }, "geometry": { "type": "Point", "coordinates": [ -79.3427272, 43.70292999999999 ] } },
    { "type": "Feature", "properties": { "name": "Jimmie Simpson Recreation Centre", "address": "870 QUEEN ST", "phone number": "416-392-0751" }, "geometry": { "type": "Point", "coordinates": [ -79.3452488, 43.6600644 ] } },
    { "type": "Feature", "properties": { "name": "John Booth Memorial Arena", "address": "230 GOSFORD BLVD", "phone number": "416-395-7942" }, "geometry": { "type": "Point", "coordinates": [ -79.5240738, 43.7696848 ] } },
    { "type": "Feature", "properties": { "name": "John English Junior Middle School", "address": "95 MIMICO AVE", "phone number": "416-394-8711" }, "geometry": { "type": "Point", "coordinates": [ -79.4943794, 43.6120557 ] } },
    { "type": "Feature", "properties": { "name": "John G. Althouse Middle School", "address": "130 LLOYD MANOR RD", "phone number": "416-394-8709" }, "geometry": { "type": "Point", "coordinates": [ -79.5539474, 43.6683576 ] } },
    { "type": "Feature", "properties": { "name": "John Innes Community Recreation Centre", "address": "150 SHERBOURNE ST", "phone number": "416-392-6779" }, "geometry": { "type": "Point", "coordinates": [ -79.37008159999999, 43.6554903 ] } },
    { "type": "Feature", "properties": { "name": "Joseph J. Piccininni Community Centre", "address": "1369 ST CLAIR AVE", "phone number": "416-392-0036" }, "geometry": { "type": "Point", "coordinates": [ -79.45173450000001, 43.6758675 ] } },
    { "type": "Feature", "properties": { "name": "Keele Community Centre", "address": "181 GLENLAKE AVE", "phone number": "416-392-0695" }, "geometry": { "type": "Point", "coordinates": [ -79.4613948, 43.6576408 ] } },
    { "type": "Feature", "properties": { "name": "Ken Cox Community Centre", "address": "28 COLONEL SAMUEL SMITH PARK DR", "phone number": "416-392-6355" }, "geometry": { "type": "Point", "coordinates": [ -79.5166072, 43.59503290000001 ] } },
    { "type": "Feature", "properties": { "name": "Kingsview Village Community School", "address": "1 YORK RD", "phone number": "416-394-5540" }, "geometry": { "type": "Point", "coordinates": [ -79.551127, 43.697707 ] } },
    { "type": "Feature", "properties": { "name": "L'Amoreaux Community Recreation Centre", "address": "2000 MCNICOLL AVE", "phone number": "416-396-4510" }, "geometry": { "type": "Point", "coordinates": [ -79.30502919999999, 43.8120425 ] } },
    { "type": "Feature", "properties": { "name": "Lambton Arena", "address": "4100 DUNDAS ST", "phone number": "416-394-2735" }, "geometry": { "type": "Point", "coordinates": [ -79.5075675, 43.6636976 ] } },
    { "type": "Feature", "properties": { "name": "Lawrence Heights Community Centre", "address": "5 REPLIN RD", "phone number": "416-395-6118" }, "geometry": { "type": "Point", "coordinates": [ -79.44274279999999, 43.7185808 ] } },
    { "type": "Feature", "properties": { "name": "Leaside Curling Club", "address": "1075 MILLWOOD RD", "phone number": "647-748-CURL (2875)" }, "geometry": { "type": "Point", "coordinates": [ -79.36028069999999, 43.7014566 ] } },
    { "type": "Feature", "properties": { "name": "Long Branch Arena", "address": "75 ARCADIAN CIR", "phone number": "416-394-8694" }, "geometry": { "type": "Point", "coordinates": [ -79.52714809999999, 43.59184820000001 ] } },
    { "type": "Feature", "properties": { "name": "Main Square Community Centre", "address": "245 MAIN ST", "phone number": "416-392-1070" }, "geometry": { "type": "Point", "coordinates": [ -79.300164, 43.6870298 ] } },
    { "type": "Feature", "properties": { "name": "Malvern Recreation Centre", "address": "30 SEWELLS RD", "phone number": "416-396-4054" }, "geometry": { "type": "Point", "coordinates": [ -79.21628059999999, 43.8081621 ] } },
    { "type": "Feature", "properties": { "name": "Markdale Preschool Site", "address": "41 MARKDALE AVE", "phone number": "416-392-0746" }, "geometry": { "type": "Point", "coordinates": [ -79.43005629999999, 43.6934149 ] } },
    { "type": "Feature", "properties": { "name": "Mary McCormick Recreation Centre", "address": "66 SHERIDAN AVE", "phone number": "416-392-0742" }, "geometry": { "type": "Point", "coordinates": [ -79.4332033, 43.6474753 ] } },
    { "type": "Feature", "properties": { "name": "Masaryk-Cowan Community Recreation Centre", "address": "220 COWAN AVE", "phone number": "416-392-6928" }, "geometry": { "type": "Point", "coordinates": [ -79.43324729999999, 43.6407674 ] } },
    { "type": "Feature", "properties": { "name": "Matty Eckler Recreation Centre", "address": "953 GERRARD ST", "phone number": "416-392-0750" }, "geometry": { "type": "Point", "coordinates": [ -79.33977879999999, 43.6677937 ] } },
    { "type": "Feature", "properties": { "name": "Maurice Cody Community Centre", "address": "181 CLEVELAND ST", "phone number": "416-392-0747" }, "geometry": { "type": "Point", "coordinates": [ -79.37835, 43.7048893 ] } },
    { "type": "Feature", "properties": { "name": "McGregor Park Community Centre", "address": "2231 LAWRENCE AVE", "phone number": "416-396-4023" }, "geometry": { "type": "Point", "coordinates": [ -79.2801286, 43.7474922 ] } },
    { "type": "Feature", "properties": { "name": "Memorial Pool and Health Club", "address": "44 MONTGOMERY RD", "phone number": "416-394-8731" }, "geometry": { "type": "Point", "coordinates": [ -79.5193128, 43.6484514 ] } },
    { "type": "Feature", "properties": { "name": "Milliken Park Community Recreation Centre", "address": "4325 MCCOWAN RD", "phone number": "416-396-7757" }, "geometry": { "type": "Point", "coordinates": [ -79.2742672, 43.8298791 ] } },
    { "type": "Feature", "properties": { "name": "Mimico Arena", "address": "31 DRUMMOND ST", "phone number": "416-394-8695" }, "geometry": { "type": "Point", "coordinates": [ -79.49880019999999, 43.612401 ] } },
    { "type": "Feature", "properties": { "name": "Mitchell Field Community Centre", "address": "89 CHURCH AVE", "phone number": "416-395-0265" }, "geometry": { "type": "Point", "coordinates": [ -79.40822899999999, 43.7744594 ] } },
    { "type": "Feature", "properties": { "name": "Mount Dennis Community Hall", "address": "4 HOLLIS ST", "phone number": "416-394-2747" }, "geometry": { "type": "Point", "coordinates": [ -79.4897443, 43.6876278 ] } },
    { "type": "Feature", "properties": { "name": "New Toronto Seniors' Centre", "address": "105 FOURTH ST", "phone number": "416-394-8684" }, "geometry": { "type": "Point", "coordinates": [ -79.5015514, 43.60103 ] } },
    { "type": "Feature", "properties": { "name": "Norseman Community School And Pool", "address": "105 NORSEMAN ST", "phone number": "416-394-8719" }, "geometry": { "type": "Point", "coordinates": [ -79.5165462, 43.6342673 ] } },
    { "type": "Feature", "properties": { "name": "North Kipling Community Centre", "address": "2 ROWNTREE RD", "phone number": "416-394-8679" }, "geometry": { "type": "Point", "coordinates": [ -79.5844929, 43.7517681 ] } },
    { "type": "Feature", "properties": { "name": "North Toronto Memorial Community Centre", "address": "200 EGLINTON AVE", "phone number": "416-392-6591" }, "geometry": { "type": "Point", "coordinates": [ -79.39210779999999, 43.7082747 ] } },
    { "type": "Feature", "properties": { "name": "Northwood Community Centre", "address": "15 CLUBHOUSE CRT", "phone number": "416-395-7876" }, "geometry": { "type": "Point", "coordinates": [ -79.4997831, 43.7454216 ] } },
    { "type": "Feature", "properties": { "name": "O'Connor Community Centre", "address": "1386 VICTORIA PARK AVE", "phone number": "416-395-7957" }, "geometry": { "type": "Point", "coordinates": [ -79.3017679, 43.7176633 ] } },
    { "type": "Feature", "properties": { "name": "Oakdale Community Centre", "address": "350 GRANDRAVINE DR", "phone number": "416-395-0484" }, "geometry": { "type": "Point", "coordinates": [ -79.5131317, 43.7478159 ] } },
    { "type": "Feature", "properties": { "name": "Oakridge Community Recreation Centre", "address": "63 PHARMACY AVE", "phone number": "416-338-1966" }, "geometry": { "type": "Point", "coordinates": [ -79.2836085, 43.6949504 ] } },
    { "type": "Feature", "properties": { "name": "Oriole Community Centre", "address": "2975 DON MILLS RD", "phone number": "416-395-6005" }, "geometry": { "type": "Point", "coordinates": [ -79.351308, 43.781774 ] } },
    { "type": "Feature", "properties": { "name": "Ourland Community Centre", "address": "18 OURLAND AVE", "phone number": "416-394-8673" }, "geometry": { "type": "Point", "coordinates": [ -79.50870069999999, 43.6155335 ] } },
    { "type": "Feature", "properties": { "name": "Pam McConnell Aquatic Centre", "address": "640 DUNDAS ST", "phone number": "416-338-2237" }, "geometry": { "type": "Point", "coordinates": [ -79.361131, 43.661223 ] } },
    { "type": "Feature", "properties": { "name": "Park Lawn Junior Middle School", "address": "71 BALLACAINE DR", "phone number": "416-394-8713" }, "geometry": { "type": "Point", "coordinates": [ -79.4967985, 43.6376642 ] } },
    { "type": "Feature", "properties": { "name": "Parkdale Community Recreation Centre", "address": "75 LANSDOWNE AVE", "phone number": "416-392-6696" }, "geometry": { "type": "Point", "coordinates": [ -79.4374673, 43.6434042 ] } },
    { "type": "Feature", "properties": { "name": "Parkway Forest Community Centre", "address": "55 FOREST MANOR RD", "phone number": "416-392-6383" }, "geometry": { "type": "Point", "coordinates": [ -79.3438654, 43.7725839 ] } },
    { "type": "Feature", "properties": { "name": "Pelmo Park Community Centre", "address": "171 PELLATT AVE", "phone number": "416-394-2747" }, "geometry": { "type": "Point", "coordinates": [ -79.5200119, 43.7146274 ] } },
    { "type": "Feature", "properties": { "name": "Phil White Arena", "address": "443 ARLINGTON AVE", "phone number": "416-394-2734" }, "geometry": { "type": "Point", "coordinates": [ -79.4319426, 43.6915748 ] } },
    { "type": "Feature", "properties": { "name": "Pine Point Arena", "address": "15 GRIERSON RD", "phone number": "416-394-8692" }, "geometry": { "type": "Point", "coordinates": [ -79.54274769999999, 43.7126479 ] } },
    { "type": "Feature", "properties": { "name": "Pleasantview Community Centre", "address": "545 VAN HORNE AVE", "phone number": "416-395-6006" }, "geometry": { "type": "Point", "coordinates": [ -79.3369623, 43.7870063 ] } },
    { "type": "Feature", "properties": { "name": "Port Union Community Recreation Centre", "address": "5450 LAWRENCE AVE", "phone number": "416-396-4031" }, "geometry": { "type": "Point", "coordinates": [ -79.1401635, 43.7797112 ] } },
    { "type": "Feature", "properties": { "name": "Power House Recreation Centre", "address": "65 COLONEL SAMUEL SMITH PARK DR", "phone number": "416-338-1081" }, "geometry": { "type": "Point", "coordinates": [ -79.515417, 43.593509 ] } },
    { "type": "Feature", "properties": { "name": "Regent Park Community Centre", "address": "402 SHUTER ST", "phone number": "416-392-5490" }, "geometry": { "type": "Point", "coordinates": [ -79.3617799, 43.6581482 ] } },
    { "type": "Feature", "properties": { "name": "Roding Community Centre", "address": "600 RODING ST", "phone number": "416-395-7964" }, "geometry": { "type": "Point", "coordinates": [ -79.49262209999999, 43.72917409999999 ] } },
    { "type": "Feature", "properties": { "name": "Roywood Park R.C. Clubhouse", "address": "2 ROYWOOD DR", "phone number": "416-395-0159" }, "geometry": { "type": "Point", "coordinates": [ -79.3206776, 43.7646931 ] } },
    { "type": "Feature", "properties": { "name": "S.H. Armstrong Community Centre", "address": "56 WOODFIELD RD", "phone number": "416-392-0734" }, "geometry": { "type": "Point", "coordinates": [ -79.32284159999999, 43.6659584 ] } },
    { "type": "Feature", "properties": { "name": "Scadding Court Community Centre", "address": "707 DUNDAS ST", "phone number": "416-392-0335" }, "geometry": { "type": "Point", "coordinates": [ -79.40496460000001, 43.6517657 ] } },
    { "type": "Feature", "properties": { "name": "Scarborough Village Recreation Centre", "address": "3600 KINGSTON RD", "phone number": "416-396-4048" }, "geometry": { "type": "Point", "coordinates": [ -79.2167412, 43.7400581 ] } },
    { "type": "Feature", "properties": { "name": "Secord Community Centre", "address": "91 BARRINGTON AVE", "phone number": "416-396-2857" }, "geometry": { "type": "Point", "coordinates": [ -79.30165749999999, 43.69202869999999 ] } },
    { "type": "Feature", "properties": { "name": "Seneca Village Community Centre", "address": "1700 FINCH AVE", "phone number": "416-395-7671" }, "geometry": { "type": "Point", "coordinates": [ -79.35135199999999, 43.7941624 ] } },
    { "type": "Feature", "properties": { "name": "Smithfield Community School", "address": "175 MOUNT OLIVE DR", "phone number": "416-394-8715" }, "geometry": { "type": "Point", "coordinates": [ -79.595371, 43.7496036 ] } },
    { "type": "Feature", "properties": { "name": "St. Lawrence Community Recreation Centre", "address": "230 THE ESPLANADE", "phone number": "416-392-1347" }, "geometry": { "type": "Point", "coordinates": [ -79.3653104, 43.6496477 ] } },
    { "type": "Feature", "properties": { "name": "St. Marcellus Community School", "address": "15 DENFIELD ST", "phone number": "416-394-5490" }, "geometry": { "type": "Point", "coordinates": [ -79.5543556, 43.67956179999999 ] } },
    { "type": "Feature", "properties": { "name": "Stan Wadlow Clubhouse", "address": "373 CEDARVALE AVE", "phone number": "416-396-2842" }, "geometry": { "type": "Point", "coordinates": [ -79.3151324, 43.698165 ] } },
    { "type": "Feature", "properties": { "name": "Stephen Leacock Community Recreation Centre", "address": "2500 BIRCHMOUNT RD", "phone number": "416-396-4184" }, "geometry": { "type": "Point", "coordinates": [ -79.3024531, 43.7867124 ] } },
    { "type": "Feature", "properties": { "name": "Stephen Leacock Seniors Community Centre", "address": "2520 BIRCHMOUNT RD", "phone number": "416-396-4040" }, "geometry": { "type": "Point", "coordinates": [ -79.3014735, 43.7874847 ] } },
    { "type": "Feature", "properties": { "name": "Swansea Community Recreation Centre", "address": "15 WALLER AVE", "phone number": "416-392-6796" }, "geometry": { "type": "Point", "coordinates": [ -79.4770327, 43.6438036 ] } },
    { "type": "Feature", "properties": { "name": "Tall Pines Community Centre", "address": "64 RYLANDER BLVD", "phone number": "416-396-4350" }, "geometry": { "type": "Point", "coordinates": [ -79.1514988, 43.7984885 ] } },
    { "type": "Feature", "properties": { "name": "Tam Heather Curling And Tennis Club", "address": "730 MILITARY TRL", "phone number": "416-284-9251" }, "geometry": { "type": "Point", "coordinates": [ -79.1992016, 43.791113 ] } },
    { "type": "Feature", "properties": { "name": "Terry Fox Recreation Centre", "address": "2 GLEDHILL AVE", "phone number": "416-396-2842" }, "geometry": { "type": "Point", "coordinates": [ -79.3091041, 43.6875045 ] } },
    { "type": "Feature", "properties": { "name": "The Elms Pool and Community School", "address": "45 GOLFDOWN DR", "phone number": "416-394-8722" }, "geometry": { "type": "Point", "coordinates": [ -79.5518165, 43.7226446 ] } },
    { "type": "Feature", "properties": { "name": "The New Generation Youth Recreation Centre", "address": "2694 EGLINTON AVE", "phone number": "416-394-2717" }, "geometry": { "type": "Point", "coordinates": [ -79.47698, 43.6902422 ] } },
    { "type": "Feature", "properties": { "name": "Thistletown Community Centre", "address": "925 ALBION RD", "phone number": "416-394-8717" }, "geometry": { "type": "Point", "coordinates": [ -79.5623677, 43.7353615 ] } },
    { "type": "Feature", "properties": { "name": "Thistletown Seniors' Centre", "address": "925 ALBION RD", "phone number": "416-394-8869" }, "geometry": { "type": "Point", "coordinates": [ -79.5623677, 43.7353615 ] } },
    { "type": "Feature", "properties": { "name": "Toronto Pan Am Sports Centre", "address": "875 MORNINGSIDE AVE", "phone number": "416-283-5222" }, "geometry": { "type": "Point", "coordinates": [ -79.19382449999999, 43.7905265 ] } },
    { "type": "Feature", "properties": { "name": "Toronto Track And Field Centre", "address": "4700 KEELE ST", "phone number": "416-392-2812" }, "geometry": { "type": "Point", "coordinates": [ -79.4940601, 43.7751785 ] } },
    { "type": "Feature", "properties": { "name": "Trace Manes Park Community Centre", "address": "110 RUMSEY RD", "phone number": "416-396-2853" }, "geometry": { "type": "Point", "coordinates": [ -79.3673098, 43.7055501 ] } },
    { "type": "Feature", "properties": { "name": "Trinity Community Recreation Centre", "address": "155 CRAWFORD ST", "phone number": "416-392-0743" }, "geometry": { "type": "Point", "coordinates": [ -79.41491289999999, 43.64621469999999 ] } },
    { "type": "Feature", "properties": { "name": "Viewmount Community Centre", "address": "169 VIEWMOUNT AVE", "phone number": "416-395-6021" }, "geometry": { "type": "Point", "coordinates": [ -79.43732709999999, 43.7074995 ] } },
    { "type": "Feature", "properties": { "name": "Wallace Emerson Community Centre", "address": "1260 DUFFERIN ST", "phone number": "416-392-0039" }, "geometry": { "type": "Point", "coordinates": [ -79.43953379999999, 43.6673429 ] } },
    { "type": "Feature", "properties": { "name": "Warden Hilltop Community Centre", "address": "25 MENDELSSOHN ST", "phone number": "416-392-7640" }, "geometry": { "type": "Point", "coordinates": [ -79.2806243, 43.7146723 ] } },
    { "type": "Feature", "properties": { "name": "Wellesley Community Centre", "address": "495 SHERBOURNE ST", "phone number": "416-392-0227" }, "geometry": { "type": "Point", "coordinates": [ -79.3744442, 43.6674103 ] } },
    { "type": "Feature", "properties": { "name": "West Acres Senior Centre", "address": "65 HINTON RD", "phone number": "416-394-8680" }, "geometry": { "type": "Point", "coordinates": [ -79.5721624, 43.7255779 ] } },
    { "type": "Feature", "properties": { "name": "West Rouge Community Centre", "address": "270 ROUGE HILLS DR", "phone number": "416-396-4147" }, "geometry": { "type": "Point", "coordinates": [ -79.1251292, 43.7923876 ] } },
    { "type": "Feature", "properties": { "name": "West Scarborough Neighbourhood Centre", "address": "313 PHARMACY AVE", "phone number": "416-755-9215" }, "geometry": { "type": "Point", "coordinates": [ -79.2846653, 43.7012714 ] } },
    { "type": "Feature", "properties": { "name": "Willowdale Lawn Bowling Club", "address": "150 BEECROFT RD", "phone number": "416-221-6362" }, "geometry": { "type": "Point", "coordinates": [ -79.4153966, 43.76510529999999 ] } },
    { "type": "Feature", "properties": { "name": "York Recreation Centre", "address": "115 BLACK CREEK DR", "phone number": "416-392-9675" }, "geometry": { "type": "Point", "coordinates": [ -79.4819816, 43.6877965 ] } }
  ]
}